{"避難所":{"type":"FeatureCollection","features":[{"type":"Feature","properties":{"﻿name":"惜陰小学校","施設名(英語)":"","カテゴリ":"避難所","対象地区":"鯖江","住所":"日の出町６－３７","電話番号":"0778-51-2866","説明(日本語)":"","説明(英語)":"","対象に対する記述":""},"geometry":{"type":"Point","coordinates":[136.186417,35.942551]}},{"type":"Feature","properties":{"﻿name":"進徳小学校","施設名(英語)":"","カテゴリ":"避難所","対象地区":"鯖江","住所":"長泉寺町２丁目５－１","電話番号":"0778-53-1503","説明(日本語)":"","説明(英語)":"","対象に対する記述":""},"geometry":{"type":"Point","coordinates":[136.18506,35.954194]}},{"type":"Feature","properties":{"﻿name":"鯖江中学校","施設名(英語)":"","カテゴリ":"避難所","対象地区":"鯖江","住所":"小黒町２丁目１２－1","電話番号":"0778-51-2890","説明(日本語)":"","説明(英語)":"","対象に対する記述":""},"geometry":{"type":"Point","coordinates":[136.175004,35.952001]}},{"type":"Feature","properties":{"﻿name":"鯖江幼稚園","施設名(英語)":"","カテゴリ":"避難所","対象地区":"鯖江","住所":"日の出町６－３７","電話番号":"0778-51-0562","説明(日本語)":"","説明(英語)":"","対象に対する記述":""},"geometry":{"type":"Point","coordinates":[136.186058,35.942516]}},{"type":"Feature","properties":{"﻿name":"王山保育所","施設名(英語)":"","カテゴリ":"避難所","対象地区":"鯖江","住所":"日の出町６－３７","電話番号":"0778-51-0640","説明(日本語)":"","説明(英語)":"","対象に対する記述":""},"geometry":{"type":"Point","coordinates":[136.186058,35.942516]}},{"type":"Feature","properties":{"﻿name":"進徳幼稚園","施設名(英語)":"","カテゴリ":"避難所","対象地区":"鯖江","住所":"長泉寺町１丁目９－１９","電話番号":"0778-51-7717","説明(日本語)":"","説明(英語)":"","対象に対する記述":""},"geometry":{"type":"Point","coordinates":[136.184309,35.953161]}},{"type":"Feature","properties":{"﻿name":"鯖江公民館","施設名(英語)":"","カテゴリ":"避難所","対象地区":"鯖江","住所":"桜町１丁目１－１６","電話番号":"0778-51-3010","説明(日本語)":"","説明(英語)":"","対象に対する記述":""},"geometry":{"type":"Point","coordinates":[136.183129,35.945387]}},{"type":"Feature","properties":{"﻿name":"早稲田保育所","施設名(英語)":"","カテゴリ":"避難所","対象地区":"鯖江","住所":"本町４丁目６－１７","電話番号":"0778-51-0364","説明(日本語)":"","説明(英語)":"","対象に対する記述":""},"geometry":{"type":"Point","coordinates":[136.184459,35.949213]}},{"type":"Feature","properties":{"﻿name":"嚮陽会館","施設名(英語)":"","カテゴリ":"避難所","対象地区":"鯖江","住所":"桜町２丁目７－１","電話番号":"0778-52-5789","説明(日本語)":"","説明(英語)":"","対象に対する記述":""},"geometry":{"type":"Point","coordinates":[136.17939,35.947928]}},{"type":"Feature","properties":{"﻿name":"市民活動交流センター","施設名(英語)":"","カテゴリ":"避難所","対象地区":"鯖江","住所":"長泉寺町１丁目９－２０","電話番号":"0778-54-7055","説明(日本語)":"","説明(英語)":"","対象に対する記述":""},"geometry":{"type":"Point","coordinates":[136.184336,35.953847]}},{"type":"Feature","properties":{"﻿name":"本町児童センター","施設名(英語)":"","カテゴリ":"避難所","対象地区":"鯖江","住所":"本町４丁目６－１６","電話番号":"0778-52-8903","説明(日本語)":"","説明(英語)":"","対象に対する記述":""},"geometry":{"type":"Point","coordinates":[136.184375,35.9495]}},{"type":"Feature","properties":{"﻿name":"舟津児童センター","施設名(英語)":"","カテゴリ":"避難所","対象地区":"鯖江","住所":"舟津町４丁目８－１６","電話番号":"0778-51-3329","説明(日本語)":"","説明(英語)":"","対象に対する記述":""},"geometry":{"type":"Point","coordinates":[136.181783,35.934743]}},{"type":"Feature","properties":{"﻿name":"小黒町児童センター","施設名(英語)":"","カテゴリ":"避難所","対象地区":"鯖江","住所":"小黒町１丁目１－１８","電話番号":"0778-52-4529","説明(日本語)":"","説明(英語)":"","対象に対する記述":""},"geometry":{"type":"Point","coordinates":[136.178958,35.951405]}},{"type":"Feature","properties":{"﻿name":"有定児童センター","施設名(英語)":"","カテゴリ":"避難所","対象地区":"鯖江","住所":"有定町２丁目８－２１","電話番号":"0778-51-2985","説明(日本語)":"","説明(英語)":"","対象に対する記述":""},"geometry":{"type":"Point","coordinates":[136.1744354,35.9450407]}},{"type":"Feature","properties":{"﻿name":"柳町児童センター","施設名(英語)":"","カテゴリ":"避難所","対象地区":"鯖江","住所":"柳町２丁目１－８","電話番号":"0778-52-9302","説明(日本語)":"","説明(英語)":"","対象に対する記述":""},"geometry":{"type":"Point","coordinates":[136.189193,35.94713]}},{"type":"Feature","properties":{"﻿name":"長泉寺児童センター","施設名(英語)":"","カテゴリ":"避難所","対象地区":"鯖江","住所":"長泉寺町２丁目３－１１","電話番号":"0778-52-0697","説明(日本語)":"","説明(英語)":"","対象に対する記述":""},"geometry":{"type":"Point","coordinates":[136.187054,35.954759]}},{"type":"Feature","properties":{"﻿name":"地域交流センター（市民ホールつつじ）","施設名(英語)":"","カテゴリ":"避難所","対象地区":"鯖江","住所":"本町２丁目２－１６","電話番号":"0778-54-7000","説明(日本語)":"","説明(英語)":"","対象に対する記述":""},"geometry":{"type":"Point","coordinates":[136.185045,35.946249]}},{"type":"Feature","properties":{"﻿name":"ふれあいみんなの館・さばえ","施設名(英語)":"","カテゴリ":"避難所","対象地区":"鯖江","住所":"上鯖江１丁目４－１","電話番号":"0778-51-8785","説明(日本語)":"","説明(英語)":"","対象に対する記述":""},"geometry":{"type":"Point","coordinates":[136.179772,35.937634]}},{"type":"Feature","properties":{"﻿name":"公園管理事務所","施設名(英語)":"","カテゴリ":"避難所","対象地区":"鯖江","住所":"桜町３丁目７－２０","電話番号":"0778-51-1001","説明(日本語)":"","説明(英語)":"","対象に対する記述":""},"geometry":{"type":"Point","coordinates":[136.18307,35.950025]}},{"type":"Feature","properties":{"﻿name":"資料館","施設名(英語)":"","カテゴリ":"避難所","対象地区":"鯖江","住所":"長泉寺町１丁目９－２０","電話番号":"0778-51-5999","説明(日本語)":"","説明(英語)":"","対象に対する記述":""},"geometry":{"type":"Point","coordinates":[136.184349,35.953521]}},{"type":"Feature","properties":{"﻿name":"スポーツ交流館","施設名(英語)":"","カテゴリ":"避難所","対象地区":"鯖江","住所":"宮前２丁目９－１","電話番号":"0778-53-0369","説明(日本語)":"","説明(英語)":"","対象に対する記述":""},"geometry":{"type":"Point","coordinates":[136.184013,35.930809]}},{"type":"Feature","properties":{"﻿name":"西山公園","施設名(英語)":"","カテゴリ":"避難所","対象地区":"鯖江","住所":"桜町","電話番号":"","説明(日本語)":"","説明(英語)":"","対象に対する記述":""},"geometry":{"type":"Point","coordinates":[136.182254,35.950484]}},{"type":"Feature","properties":{"﻿name":"鯖江東小学校","施設名(英語)":"","カテゴリ":"避難所","対象地区":"新横江","住所":"新横江２丁目６－３７","電話番号":"0778-51-0338","説明(日本語)":"","説明(英語)":"","対象に対する記述":""},"geometry":{"type":"Point","coordinates":[136.198778,35.939604]}},{"type":"Feature","properties":{"﻿name":"鯖江東幼稚園","施設名(英語)":"","カテゴリ":"避難所","対象地区":"新横江","住所":"新横江２丁目６－３７","電話番号":"0778-52-5696","説明(日本語)":"","説明(英語)":"","対象に対する記述":""},"geometry":{"type":"Point","coordinates":[136.198456,35.9394]}},{"type":"Feature","properties":{"﻿name":"新横江公民館","施設名(英語)":"","カテゴリ":"避難所","対象地区":"新横江","住所":"横越町１－４３－２","電話番号":"0778-51-2969","説明(日本語)":"","説明(英語)":"","対象に対する記述":""},"geometry":{"type":"Point","coordinates":[136.200731,35.942024]}},{"type":"Feature","properties":{"﻿name":"いきいき未来館","施設名(英語)":"","カテゴリ":"避難所","対象地区":"新横江","住所":"定次町１０８","電話番号":"0778-51-1450","説明(日本語)":"","説明(英語)":"","対象に対する記述":""},"geometry":{"type":"Point","coordinates":[136.198078,35.938589]}},{"type":"Feature","properties":{"﻿name":"新横江児童センター","施設名(英語)":"","カテゴリ":"避難所","対象地区":"新横江","住所":"定次町１０８","電話番号":"0778-51-1450","説明(日本語)":"","説明(英語)":"","対象に対する記述":""},"geometry":{"type":"Point","coordinates":[136.198078,35.938589]}},{"type":"Feature","properties":{"﻿name":"文化センター","施設名(英語)":"","カテゴリ":"避難所","対象地区":"新横江","住所":"東鯖江３丁目７－１","電話番号":"0778-52-7430","説明(日本語)":"","説明(英語)":"","対象に対する記述":""},"geometry":{"type":"Point","coordinates":[136.199012,35.943479]}},{"type":"Feature","properties":{"﻿name":"総合体育館","施設名(英語)":"","カテゴリ":"避難所","対象地区":"新横江","住所":"東鯖江３丁目６－１０","電話番号":"0778-51-3176","説明(日本語)":"","説明(英語)":"","対象に対する記述":""},"geometry":{"type":"Point","coordinates":[136.1977014,35.9441291]}},{"type":"Feature","properties":{"﻿name":"東公園","施設名(英語)":"","カテゴリ":"避難所","対象地区":"新横江","住所":"東鯖江３丁目","電話番号":"","説明(日本語)":"","説明(英語)":"","対象に対する記述":""},"geometry":{"type":"Point","coordinates":[136.1982769,35.9443163]}},{"type":"Feature","properties":{"﻿name":"神明小学校","施設名(英語)":"","カテゴリ":"避難所","対象地区":"神明","住所":"水落町４丁目１３－２３","電話番号":"0778-51-1110","説明(日本語)":"","説明(英語)":"","対象に対する記述":""},"geometry":{"type":"Point","coordinates":[136.184455,35.970339]}},{"type":"Feature","properties":{"﻿name":"鳥羽小学校","施設名(英語)":"","カテゴリ":"避難所","対象地区":"神明","住所":"神明町４丁目１－３８","電話番号":"0778-52-0045","説明(日本語)":"","説明(英語)":"","対象に対する記述":""},"geometry":{"type":"Point","coordinates":[136.187909,35.979303]}},{"type":"Feature","properties":{"﻿name":"中央中学校","施設名(英語)":"","カテゴリ":"避難所","対象地区":"神明","住所":"三六町１丁目１－５０","電話番号":"0778-51-1161","説明(日本語)":"","説明(英語)":"","対象に対する記述":""},"geometry":{"type":"Point","coordinates":[136.180165,35.96949]}},{"type":"Feature","properties":{"﻿name":"神明幼稚園","施設名(英語)":"","カテゴリ":"避難所","対象地区":"神明","住所":"三六町１丁目８－２４","電話番号":"0778-51-1002","説明(日本語)":"","説明(英語)":"","対象に対する記述":""},"geometry":{"type":"Point","coordinates":[136.178422,35.971843]}},{"type":"Feature","properties":{"﻿name":"神明公民館","施設名(英語)":"","カテゴリ":"避難所","対象地区":"神明","住所":"三六町１丁目４－１２","電話番号":"0778-51-5065","説明(日本語)":"","説明(英語)":"","対象に対する記述":""},"geometry":{"type":"Point","coordinates":[136.178959,35.970727]}},{"type":"Feature","properties":{"﻿name":"神明保育所","施設名(英語)":"","カテゴリ":"避難所","対象地区":"神明","住所":"三六町１丁目１－１２","電話番号":"0778-51-1137","説明(日本語)":"","説明(英語)":"","対象に対する記述":""},"geometry":{"type":"Point","coordinates":[136.178814,35.968335]}},{"type":"Feature","properties":{"﻿name":"神明苑","施設名(英語)":"","カテゴリ":"避難所","対象地区":"神明","住所":"神明町２丁目８－４","電話番号":"0778-52-5165","説明(日本語)":"","説明(英語)":"","対象に対する記述":""},"geometry":{"type":"Point","coordinates":[136.183083,35.972495]}},{"type":"Feature","properties":{"﻿name":"夢みらい館・さばえ","施設名(英語)":"","カテゴリ":"避難所","対象地区":"神明","住所":"三六町１丁目４－２０","電話番号":"0778-51-1722","説明(日本語)":"","説明(英語)":"","対象に対する記述":""},"geometry":{"type":"Point","coordinates":[136.17933,35.970718]}},{"type":"Feature","properties":{"﻿name":"水落児童館","施設名(英語)":"","カテゴリ":"避難所","対象地区":"神明","住所":"水落町１丁目８－２２","電話番号":"0778-52-3561","説明(日本語)":"","説明(英語)":"","対象に対する記述":""},"geometry":{"type":"Point","coordinates":[136.18176,35.959049]}},{"type":"Feature","properties":{"﻿name":"鳥羽中児童センター","施設名(英語)":"","カテゴリ":"避難所","対象地区":"神明","住所":"神明町４丁目７－５５","電話番号":"0778-52-5920","説明(日本語)":"","説明(英語)":"","対象に対する記述":""},"geometry":{"type":"Point","coordinates":[136.185448,35.979438]}},{"type":"Feature","properties":{"﻿name":"神中児童センター","施設名(英語)":"","カテゴリ":"避難所","対象地区":"神明","住所":"神中町３丁目５－３１","電話番号":"0778-52-8909","説明(日本語)":"","説明(英語)":"","対象に対する記述":""},"geometry":{"type":"Point","coordinates":[136.187045,35.975332]}},{"type":"Feature","properties":{"﻿name":"健康福祉センター（アイアイさばえ）","施設名(英語)":"","カテゴリ":"避難所","対象地区":"神明","住所":"水落町２丁目３０－１","電話番号":"0778-52-1121","説明(日本語)":"","説明(英語)":"","対象に対する記述":""},"geometry":{"type":"Point","coordinates":[136.187807,35.961599]}},{"type":"Feature","properties":{"﻿name":"神明健康スポーツセンター","施設名(英語)":"","カテゴリ":"避難所","対象地区":"神明","住所":"北野町１６－７","電話番号":"0778-51-7380","説明(日本語)":"","説明(英語)":"","対象に対する記述":""},"geometry":{"type":"Point","coordinates":[136.174388,35.968747]}},{"type":"Feature","properties":{"﻿name":"勤労青少年ホーム","施設名(英語)":"","カテゴリ":"避難所","対象地区":"神明","住所":"水落町２丁目２４－２","電話番号":"0778-52-5988","説明(日本語)":"","説明(英語)":"","対象に対する記述":""},"geometry":{"type":"Point","coordinates":[136.186872,35.959876]}},{"type":"Feature","properties":{"﻿name":"青年会館","施設名(英語)":"","カテゴリ":"避難所","対象地区":"神明","住所":"水落町２丁目２４－３１","電話番号":"","説明(日本語)":"","説明(英語)":"","対象に対する記述":""},"geometry":{"type":"Point","coordinates":[136.186915,35.96035]}},{"type":"Feature","properties":{"﻿name":"文化の館","施設名(英語)":"","カテゴリ":"避難所","対象地区":"神明","住所":"水落町２丁目２５－２８","電話番号":"0778-52-0089","説明(日本語)":"","説明(英語)":"","対象に対する記述":""},"geometry":{"type":"Point","coordinates":[136.186513,35.961991]}},{"type":"Feature","properties":{"﻿name":"三六武道館","施設名(英語)":"","カテゴリ":"避難所","対象地区":"神明","住所":"三六町２丁目２－４０","電話番号":"0778-52-8919","説明(日本語)":"","説明(英語)":"","対象に対する記述":""},"geometry":{"type":"Point","coordinates":[136.180379,35.97346]}},{"type":"Feature","properties":{"﻿name":"ゲートボールセンター","施設名(英語)":"","カテゴリ":"避難所","対象地区":"神明","住所":"水落町２丁目２５－１０","電話番号":"0778-51-8363","説明(日本語)":"","説明(英語)":"","対象に対する記述":""},"geometry":{"type":"Point","coordinates":[136.185749,35.961887]}},{"type":"Feature","properties":{"﻿name":"丸山公園","施設名(英語)":"","カテゴリ":"避難所","対象地区":"神明","住所":"丸山町","電話番号":"","説明(日本語)":"","説明(英語)":"","対象に対する記述":""},"geometry":{"type":"Point","coordinates":[136.179277,35.983957]}},{"type":"Feature","properties":{"﻿name":"神中公園","施設名(英語)":"","カテゴリ":"避難所","対象地区":"神明","住所":"神中町","電話番号":"","説明(日本語)":"","説明(英語)":"","対象に対する記述":""},"geometry":{"type":"Point","coordinates":[136.188497,35.975823]}},{"type":"Feature","properties":{"﻿name":"御幸公園","施設名(英語)":"","カテゴリ":"避難所","対象地区":"神明","住所":"御幸町","電話番号":"","説明(日本語)":"","説明(英語)":"","対象に対する記述":""},"geometry":{"type":"Point","coordinates":[136.188754,35.977004]}},{"type":"Feature","properties":{"﻿name":"中河小学校","施設名(英語)":"","カテゴリ":"避難所","対象地区":"中河","住所":"中野町７３－１６","電話番号":"0778-51-0518","説明(日本語)":"","説明(英語)":"","対象に対する記述":""},"geometry":{"type":"Point","coordinates":[136.208658,35.95429]}},{"type":"Feature","properties":{"﻿name":"中河公民館","施設名(英語)":"","カテゴリ":"避難所","対象地区":"中河","住所":"中野町２０３－８","電話番号":"0778-51-3102","説明(日本語)":"","説明(英語)":"","対象に対する記述":""},"geometry":{"type":"Point","coordinates":[136.208984,35.956213]}},{"type":"Feature","properties":{"﻿name":"中河保育所","施設名(英語)":"","カテゴリ":"避難所","対象地区":"中河","住所":"中野町２０８－１","電話番号":"0778-51-3103","説明(日本語)":"","説明(英語)":"","対象に対する記述":""},"geometry":{"type":"Point","coordinates":[136.210406,35.954532]}},{"type":"Feature","properties":{"﻿name":"みずほ保育所","施設名(英語)":"","カテゴリ":"避難所","対象地区":"中河","住所":"下河端町４７－４３","電話番号":"0778-51-1416","説明(日本語)":"","説明(英語)":"","対象に対する記述":""},"geometry":{"type":"Point","coordinates":[136.198288,35.968683]}},{"type":"Feature","properties":{"﻿name":"曲木児童センター","施設名(英語)":"","カテゴリ":"避難所","対象地区":"中河","住所":"中野町５４－３０－１","電話番号":"0778-52-5940","説明(日本語)":"","説明(英語)":"","対象に対する記述":""},"geometry":{"type":"Point","coordinates":[136.206846,35.953851]}},{"type":"Feature","properties":{"﻿name":"環境教育支援センター（エコネットさばえ）","施設名(英語)":"","カテゴリ":"避難所","対象地区":"中河","住所":"中野町７３－１１","電話番号":"0778-52-0050","説明(日本語)":"","説明(英語)":"","対象に対する記述":""},"geometry":{"type":"Point","coordinates":[136.208515,35.954606]}},{"type":"Feature","properties":{"﻿name":"高年大学","施設名(英語)":"","カテゴリ":"避難所","対象地区":"中河","住所":"舟枝町４－２３－１","電話番号":"0778-52-8824","説明(日本語)":"","説明(英語)":"","対象に対する記述":""},"geometry":{"type":"Point","coordinates":[136.206737,35.962879]}},{"type":"Feature","properties":{"﻿name":"片上小学校","施設名(英語)":"","カテゴリ":"避難所","対象地区":"片上","住所":"大野町１６－６","電話番号":"0778-51-4802","説明(日本語)":"","説明(英語)":"","対象に対する記述":""},"geometry":{"type":"Point","coordinates":[136.231683,35.973756]}},{"type":"Feature","properties":{"﻿name":"片上幼稚園","施設名(英語)":"","カテゴリ":"避難所","対象地区":"片上","住所":"大野町１６－６","電話番号":"0778-52-5791","説明(日本語)":"","説明(英語)":"","対象に対する記述":""},"geometry":{"type":"Point","coordinates":[136.231575,35.974311]}},{"type":"Feature","properties":{"﻿name":"片上公民館","施設名(英語)":"","カテゴリ":"避難所","対象地区":"片上","住所":"大野町６－８－１","電話番号":"0778-51-4801","説明(日本語)":"","説明(英語)":"","対象に対する記述":""},"geometry":{"type":"Point","coordinates":[136.230857,35.973656]}},{"type":"Feature","properties":{"﻿name":"立待小学校","施設名(英語)":"","カテゴリ":"避難所","対象地区":"立待","住所":"杉本町１－５","電話番号":"0778-51-1505","説明(日本語)":"","説明(英語)":"","対象に対する記述":""},"geometry":{"type":"Point","coordinates":[136.169976,35.983888]}},{"type":"Feature","properties":{"﻿name":"立待公民館","施設名(英語)":"","カテゴリ":"避難所","対象地区":"立待","住所":"杉本町７０２－２","電話番号":"0778-51-3376","説明(日本語)":"","説明(英語)":"","対象に対する記述":""},"geometry":{"type":"Point","coordinates":[136.174017,35.9827283]}},{"type":"Feature","properties":{"﻿name":"立待保育所","施設名(英語)":"","カテゴリ":"避難所","対象地区":"立待","住所":"杉本町３３－４－１","電話番号":"0778-51-3377","説明(日本語)":"","説明(英語)":"","対象に対する記述":""},"geometry":{"type":"Point","coordinates":[136.173657,35.983618]}},{"type":"Feature","properties":{"﻿name":"石田保育所","施設名(英語)":"","カテゴリ":"避難所","対象地区":"立待","住所":"石田上町４４－１","電話番号":"0778-51-1972","説明(日本語)":"","説明(英語)":"","対象に対する記述":""},"geometry":{"type":"Point","coordinates":[136.160892,35.979572]}},{"type":"Feature","properties":{"﻿name":"石田児童センター","施設名(英語)":"","カテゴリ":"避難所","対象地区":"立待","住所":"石田下町１７－１１","電話番号":"0778-52-5150","説明(日本語)":"","説明(英語)":"","対象に対する記述":""},"geometry":{"type":"Point","coordinates":[136.157117,35.978014]}},{"type":"Feature","properties":{"﻿name":"立待体育館","施設名(英語)":"","カテゴリ":"避難所","対象地区":"立待","住所":"杉本町５１３","電話番号":"0778-51-1567","説明(日本語)":"","説明(英語)":"","対象に対する記述":""},"geometry":{"type":"Point","coordinates":[136.172514,35.983722]}},{"type":"Feature","properties":{"﻿name":"弓道場","施設名(英語)":"","カテゴリ":"避難所","対象地区":"立待","住所":"杉本町６１９","電話番号":"0778-52-4524","説明(日本語)":"","説明(英語)":"","対象に対する記述":""},"geometry":{"type":"Point","coordinates":[136.173582,35.982832]}},{"type":"Feature","properties":{"﻿name":"西公園","施設名(英語)":"","カテゴリ":"避難所","対象地区":"立待","住所":"","電話番号":"","説明(日本語)":"","説明(英語)":"","対象に対する記述":""},"geometry":{"type":"Point","coordinates":[136.1658004,35.9711516]}},{"type":"Feature","properties":{"﻿name":"吉川小学校","施設名(英語)":"","カテゴリ":"避難所","対象地区":"吉川","住所":"大倉町２２－１","電話番号":"0778-62-1134","説明(日本語)":"","説明(英語)":"","対象に対する記述":""},"geometry":{"type":"Point","coordinates":[136.157322,35.961902]}},{"type":"Feature","properties":{"﻿name":"吉川公民館","施設名(英語)":"","カテゴリ":"避難所","対象地区":"吉川","住所":"大倉町５－１４－１","電話番号":"0778-62-1020","説明(日本語)":"","説明(英語)":"","対象に対する記述":""},"geometry":{"type":"Point","coordinates":[136.157338,35.96307]}},{"type":"Feature","properties":{"﻿name":"吉川保育所","施設名(英語)":"","カテゴリ":"避難所","対象地区":"吉川","住所":"大倉町５－２０","電話番号":"0778-62-1332","説明(日本語)":"","説明(英語)":"","対象に対する記述":""},"geometry":{"type":"Point","coordinates":[136.156453,35.962927]}},{"type":"Feature","properties":{"﻿name":"平井児童センター","施設名(英語)":"","カテゴリ":"避難所","対象地区":"吉川","住所":"平井町２７－９－５","電話番号":"0778-62-0716","説明(日本語)":"","説明(英語)":"","対象に対する記述":""},"geometry":{"type":"Point","coordinates":[136.164726,35.961634]}},{"type":"Feature","properties":{"﻿name":"豊小学校","施設名(英語)":"","カテゴリ":"避難所","対象地区":"豊","住所":"下野田町３９－２９","電話番号":"0778-62-1201","説明(日本語)":"","説明(英語)":"","対象に対する記述":""},"geometry":{"type":"Point","coordinates":[136.151343,35.943696]}},{"type":"Feature","properties":{"﻿name":"豊幼稚園","施設名(英語)":"","カテゴリ":"避難所","対象地区":"豊","住所":"上野田町２－９","電話番号":"0778-62-1680","説明(日本語)":"","説明(英語)":"","対象に対する記述":""},"geometry":{"type":"Point","coordinates":[136.151622,35.942428]}},{"type":"Feature","properties":{"﻿name":"豊公民館","施設名(英語)":"","カテゴリ":"避難所","対象地区":"豊","住所":"下野田町２６－８－１","電話番号":"0778-62-1011","説明(日本語)":"","説明(英語)":"","対象に対する記述":""},"geometry":{"type":"Point","coordinates":[136.152168,35.945984]}},{"type":"Feature","properties":{"﻿name":"みのり保育所","施設名(英語)":"","カテゴリ":"避難所","対象地区":"豊","住所":"上野田町２－９","電話番号":"0778-62-1331","説明(日本語)":"","説明(英語)":"","対象に対する記述":""},"geometry":{"type":"Point","coordinates":[136.151622,35.942428]}},{"type":"Feature","properties":{"﻿name":"北中山小学校","施設名(英語)":"","カテゴリ":"避難所","対象地区":"北中山","住所":"磯部町２５－１１","電話番号":"0778-65-1019","説明(日本語)":"","説明(英語)":"","対象に対する記述":""},"geometry":{"type":"Point","coordinates":[136.243052,35.953387]}},{"type":"Feature","properties":{"﻿name":"東陽中学校","施設名(英語)":"","カテゴリ":"避難所","対象地区":"北中山","住所":"落井町３２－７","電話番号":"0778-65-0104","説明(日本語)":"","説明(英語)":"","対象に対する記述":""},"geometry":{"type":"Point","coordinates":[136.22999,35.951083]}},{"type":"Feature","properties":{"﻿name":"北中山幼稚園","施設名(英語)":"","カテゴリ":"避難所","対象地区":"北中山","住所":"戸口町９－１１－４","電話番号":"0778-65-2879","説明(日本語)":"","説明(英語)":"","対象に対する記述":""},"geometry":{"type":"Point","coordinates":[136.244121,35.953349]}},{"type":"Feature","properties":{"﻿name":"北中山公民館","施設名(英語)":"","カテゴリ":"避難所","対象地区":"北中山","住所":"落井町４１－３３－１","電話番号":"0778-65-1001","説明(日本語)":"","説明(英語)":"","対象に対する記述":""},"geometry":{"type":"Point","coordinates":[136.2378073,35.9513561]}},{"type":"Feature","properties":{"﻿name":"北中山児童センター","施設名(英語)":"","カテゴリ":"避難所","対象地区":"北中山","住所":"磯部町２５－２８","電話番号":"0778-65-2390","説明(日本語)":"","説明(英語)":"","対象に対する記述":""},"geometry":{"type":"Point","coordinates":[136.2424019,35.9531347]}},{"type":"Feature","properties":{"﻿name":"戸口児童センター","施設名(英語)":"","カテゴリ":"避難所","対象地区":"北中山","住所":"戸口町１５－１８－３","電話番号":"0778-65-0664","説明(日本語)":"","説明(英語)":"","対象に対する記述":""},"geometry":{"type":"Point","coordinates":[136.246267,35.951807]}},{"type":"Feature","properties":{"﻿name":"河和田小学校","施設名(英語)":"","カテゴリ":"避難所","対象地区":"河和田","住所":"西袋町６７－８","電話番号":"0778-65-0050","説明(日本語)":"","説明(英語)":"","対象に対する記述":""},"geometry":{"type":"Point","coordinates":[136.278772,35.953079]}},{"type":"Feature","properties":{"﻿name":"かわだ保育所","施設名(英語)":"","カテゴリ":"避難所","対象地区":"河和田","住所":"莇生田町１０－５－１","電話番号":"0778-65-0173","説明(日本語)":"","説明(英語)":"","対象に対する記述":""},"geometry":{"type":"Point","coordinates":[136.272356,35.946236]}},{"type":"Feature","properties":{"﻿name":"ラポーゼかわだ","施設名(英語)":"","カテゴリ":"避難所","対象地区":"河和田","住所":"上河内町１９－３７－２","電話番号":"0778-65-0012","説明(日本語)":"","説明(英語)":"","対象に対する記述":""},"geometry":{"type":"Point","coordinates":[136.300819,35.948078]}},{"type":"Feature","properties":{"﻿name":"東部児童センター","施設名(英語)":"","カテゴリ":"避難所","対象地区":"河和田","住所":"別司町２１－１７","電話番号":"0778-65-1119","説明(日本語)":"","説明(英語)":"","対象に対する記述":""},"geometry":{"type":"Point","coordinates":[136.258044,35.948329]}},{"type":"Feature","properties":{"﻿name":"越前漆器伝統産業会館（うるしの里会館）","施設名(英語)":"","カテゴリ":"避難所","対象地区":"河和田","住所":"西袋町４０－１－２","電話番号":"0778-65-2727","説明(日本語)":"","説明(英語)":"","対象に対する記述":""},"geometry":{"type":"Point","coordinates":[136.273902,35.95314]}},{"type":"Feature","properties":{"﻿name":"河和田体育館","施設名(英語)":"","カテゴリ":"避難所","対象地区":"河和田","住所":"西袋町６８－４８－１","電話番号":"0778-65-1972","説明(日本語)":"","説明(英語)":"","対象に対する記述":""},"geometry":{"type":"Point","coordinates":[136.277844,35.956562]}},{"type":"Feature","properties":{"﻿name":"中山公園","施設名(英語)":"","カテゴリ":"避難所","対象地区":"河和田","住所":"西袋町","電話番号":"","説明(日本語)":"","説明(英語)":"","対象に対する記述":""},"geometry":{"type":"Point","coordinates":[136.278018,35.958074]}}]},"一時避難所":{"type":"FeatureCollection","features":[{"type":"Feature","properties":{"﻿name":"本法寺","施設名(英語)":"","カテゴリ":"一時避難所","対象地区":"鯖江","住所":"鯖江市本町1丁目1－2","電話番号":"0778-51-0572","説明(日本語)":"","説明(英語)":"","対象に対する記述":""},"geometry":{"type":"Point","coordinates":[136.185843,35.943768]}},{"type":"Feature","properties":{"﻿name":"本町２丁目ポケットパーク","施設名(英語)":"","カテゴリ":"一時避難所","対象地区":"鯖江","住所":"本町２丁目","電話番号":"","説明(日本語)":"","説明(英語)":"","対象に対する記述":""},"geometry":{"type":"Point","coordinates":[136.185105,35.945323]}},{"type":"Feature","properties":{"﻿name":"誠照寺","施設名(英語)":"","カテゴリ":"一時避難所","対象地区":"鯖江","住所":"本町３丁目","電話番号":"0778-51-0139","説明(日本語)":"","説明(英語)":"","対象に対する記述":""},"geometry":{"type":"Point","coordinates":[136.184338,35.946995]}},{"type":"Feature","properties":{"﻿name":"早稲田保育所","施設名(英語)":"","カテゴリ":"一時避難所","対象地区":"鯖江","住所":"本町４丁目","電話番号":"0778-51-0364","説明(日本語)":"","説明(英語)":"","対象に対する記述":""},"geometry":{"type":"Point","coordinates":[136.184459,35.949213]}},{"type":"Feature","properties":{"﻿name":"松阜神社","施設名(英語)":"","カテゴリ":"一時避難所","対象地区":"鯖江","住所":"鯖江市旭町1丁目2-14","電話番号":"0778-53-0523","説明(日本語)":"","説明(英語)":"","対象に対する記述":""},"geometry":{"type":"Point","coordinates":[136.187864,35.94428]}},{"type":"Feature","properties":{"﻿name":"旭町２丁目公民館","施設名(英語)":"","カテゴリ":"一時避難所","対象地区":"鯖江","住所":"旭町２丁目","電話番号":"","説明(日本語)":"","説明(英語)":"","対象に対する記述":""},"geometry":{"type":"Point","coordinates":[136.188226,35.94576]}},{"type":"Feature","properties":{"﻿name":"旭町３丁目公園","施設名(英語)":"","カテゴリ":"一時避難所","対象地区":"鯖江","住所":"旭町３丁目","電話番号":"","説明(日本語)":"","説明(英語)":"","対象に対する記述":""},"geometry":{"type":"Point","coordinates":[136.188197,35.946651]}},{"type":"Feature","properties":{"﻿name":"旭公園","施設名(英語)":"","カテゴリ":"一時避難所","対象地区":"鯖江","住所":"旭町４丁目","電話番号":"","説明(日本語)":"","説明(英語)":"","対象に対する記述":""},"geometry":{"type":"Point","coordinates":[136.187344,35.949638]}},{"type":"Feature","properties":{"﻿name":"東鯖江会館","施設名(英語)":"","カテゴリ":"一時避難所","対象地区":"鯖江","住所":"柳町１・横江町１・２丁目","電話番号":"","説明(日本語)":"","説明(英語)":"","対象に対する記述":""},"geometry":{"type":"Point","coordinates":[136.189574,35.942644]}},{"type":"Feature","properties":{"﻿name":"柳町児童センター","施設名(英語)":"","カテゴリ":"一時避難所","対象地区":"鯖江","住所":"柳町２丁目","電話番号":"0778-52-9302","説明(日本語)":"","説明(英語)":"","対象に対する記述":""},"geometry":{"type":"Point","coordinates":[136.189215,35.94716]}},{"type":"Feature","properties":{"﻿name":"柳町団地遊園地","施設名(英語)":"","カテゴリ":"一時避難所","対象地区":"鯖江","住所":"柳町団地","電話番号":"","説明(日本語)":"","説明(英語)":"","対象に対する記述":""},"geometry":{"type":"Point","coordinates":[136.190489,35.949376]}},{"type":"Feature","properties":{"﻿name":"東鯖江第１公園","施設名(英語)":"","カテゴリ":"一時避難所","対象地区":"鯖江","住所":"柳町３・４丁目","電話番号":"","説明(日本語)":"","説明(英語)":"","対象に対する記述":""},"geometry":{"type":"Point","coordinates":[136.192518,35.948744]}},{"type":"Feature","properties":{"﻿name":"東鯖江第３公園","施設名(英語)":"","カテゴリ":"一時避難所","対象地区":"鯖江","住所":"柳町３・４丁目","電話番号":"","説明(日本語)":"","説明(英語)":"","対象に対する記述":""},"geometry":{"type":"Point","coordinates":[136.192381,35.945302]}},{"type":"Feature","properties":{"﻿name":"嚮陽会館","施設名(英語)":"","カテゴリ":"一時避難所","対象地区":"鯖江","住所":"桜町１・２・３丁目","電話番号":"0778-52-5789","説明(日本語)":"","説明(英語)":"","対象に対する記述":""},"geometry":{"type":"Point","coordinates":[136.17939,35.947928]}},{"type":"Feature","properties":{"﻿name":"桜町ふれあい広場","施設名(英語)":"","カテゴリ":"一時避難所","対象地区":"鯖江","住所":"桜町１・２・３丁目","電話番号":"","説明(日本語)":"","説明(英語)":"","対象に対する記述":""},"geometry":{"type":"Point","coordinates":[136.18103,35.947335]}},{"type":"Feature","properties":{"﻿name":"進徳小学校","施設名(英語)":"","カテゴリ":"一時避難所","対象地区":"鯖江","住所":"長泉寺町１・２丁目","電話番号":"0778-53-1503","説明(日本語)":"","説明(英語)":"","対象に対する記述":""},"geometry":{"type":"Point","coordinates":[136.18506,35.954194]}},{"type":"Feature","properties":{"﻿name":"建設業会館南広場","施設名(英語)":"","カテゴリ":"一時避難所","対象地区":"鯖江","住所":"西山町","電話番号":"","説明(日本語)":"","説明(英語)":"","対象に対する記述":""},"geometry":{"type":"Point","coordinates":[136.183171,35.955529]}},{"type":"Feature","properties":{"﻿name":"惜陰小学校","施設名(英語)":"","カテゴリ":"一時避難所","対象地区":"鯖江","住所":"日の出町・深江町","電話番号":"0778-51-2866","説明(日本語)":"","説明(英語)":"","対象に対する記述":""},"geometry":{"type":"Point","coordinates":[136.186417,35.942551]}},{"type":"Feature","properties":{"﻿name":"屋形町児童公園","施設名(英語)":"","カテゴリ":"一時避難所","対象地区":"鯖江","住所":"屋形町","電話番号":"","説明(日本語)":"","説明(英語)":"","対象に対する記述":""},"geometry":{"type":"Point","coordinates":[136.184002,35.944751]}},{"type":"Feature","properties":{"﻿name":"鯖江高校グラウンド","施設名(英語)":"","カテゴリ":"一時避難所","対象地区":"鯖江","住所":"舟津町１丁目","電話番号":"","説明(日本語)":"","説明(英語)":"","対象に対する記述":""},"geometry":{"type":"Point","coordinates":[136.185086,35.93851]}},{"type":"Feature","properties":{"﻿name":"鯖江高校","施設名(英語)":"","カテゴリ":"一時避難所","対象地区":"鯖江","住所":"舟津町２丁目","電話番号":"0778-51-0001","説明(日本語)":"","説明(英語)":"","対象に対する記述":""},"geometry":{"type":"Point","coordinates":[136.185794,35.937623]}},{"type":"Feature","properties":{"﻿name":"佐々木工場跡地","施設名(英語)":"","カテゴリ":"一時避難所","対象地区":"鯖江","住所":"舟津町３丁目","電話番号":"","説明(日本語)":"","説明(英語)":"","対象に対する記述":""},"geometry":{"type":"Point","coordinates":[136.181672,35.93585]}},{"type":"Feature","properties":{"﻿name":"舟津町３丁目公園","施設名(英語)":"","カテゴリ":"一時避難所","対象地区":"鯖江","住所":"舟津町３丁目","電話番号":"","説明(日本語)":"","説明(英語)":"","対象に対する記述":""},"geometry":{"type":"Point","coordinates":[136.181243,35.937339]}},{"type":"Feature","properties":{"﻿name":"舟津児童センター","施設名(英語)":"","カテゴリ":"一時避難所","対象地区":"鯖江","住所":"舟津町４丁目","電話番号":"0778-51-3329","説明(日本語)":"","説明(英語)":"","対象に対する記述":""},"geometry":{"type":"Point","coordinates":[136.181783,35.934743]}},{"type":"Feature","properties":{"﻿name":"舟津西公園","施設名(英語)":"","カテゴリ":"一時避難所","対象地区":"鯖江","住所":"舟津町５丁目","電話番号":"","説明(日本語)":"","説明(英語)":"","対象に対する記述":""},"geometry":{"type":"Point","coordinates":[136.178888,35.93108]}},{"type":"Feature","properties":{"﻿name":"鯖江中学校","施設名(英語)":"","カテゴリ":"一時避難所","対象地区":"鯖江","住所":"小黒町１・２・３丁目","電話番号":"0778-51-2890","説明(日本語)":"","説明(英語)":"","対象に対する記述":""},"geometry":{"type":"Point","coordinates":[136.175004,35.952001]}},{"type":"Feature","properties":{"﻿name":"住吉第１公園","施設名(英語)":"","カテゴリ":"一時避難所","対象地区":"鯖江","住所":"住吉町１丁目","電話番号":"","説明(日本語)":"","説明(英語)":"","対象に対する記述":""},"geometry":{"type":"Point","coordinates":[136.181873,35.942404]}},{"type":"Feature","properties":{"﻿name":"住吉第２公園","施設名(英語)":"","カテゴリ":"一時避難所","対象地区":"鯖江","住所":"住吉町２丁目","電話番号":"","説明(日本語)":"","説明(英語)":"","対象に対する記述":""},"geometry":{"type":"Point","coordinates":[136.177298,35.939499]}},{"type":"Feature","properties":{"﻿name":"ひまわり公園","施設名(英語)":"","カテゴリ":"一時避難所","対象地区":"鯖江","住所":"住吉町３丁目","電話番号":"","説明(日本語)":"","説明(英語)":"","対象に対する記述":""},"geometry":{"type":"Point","coordinates":[136.18012,35.940444]}},{"type":"Feature","properties":{"﻿name":"南公園","施設名(英語)":"","カテゴリ":"一時避難所","対象地区":"鯖江","住所":"有定町１丁目","電話番号":"","説明(日本語)":"","説明(英語)":"","対象に対する記述":""},"geometry":{"type":"Point","coordinates":[136.177247,35.943345]}},{"type":"Feature","properties":{"﻿name":"有定第１公園","施設名(英語)":"","カテゴリ":"一時避難所","対象地区":"鯖江","住所":"有定町２丁目","電話番号":"","説明(日本語)":"","説明(英語)":"","対象に対する記述":""},"geometry":{"type":"Point","coordinates":[136.173921,35.945534]}},{"type":"Feature","properties":{"﻿name":"小黒第１公園","施設名(英語)":"","カテゴリ":"一時避難所","対象地区":"鯖江","住所":"有定町３丁目","電話番号":"","説明(日本語)":"","説明(英語)":"","対象に対する記述":""},"geometry":{"type":"Point","coordinates":[136.174358,35.950343]}},{"type":"Feature","properties":{"﻿name":"宮前公園","施設名(英語)":"","カテゴリ":"一時避難所","対象地区":"鯖江","住所":"宮前１・２丁目","電話番号":"","説明(日本語)":"","説明(英語)":"","対象に対する記述":""},"geometry":{"type":"Point","coordinates":[136.18745,35.935553]}},{"type":"Feature","properties":{"﻿name":"上鯖江第１公園","施設名(英語)":"","カテゴリ":"一時避難所","対象地区":"鯖江","住所":"上鯖江１・２丁目","電話番号":"","説明(日本語)":"","説明(英語)":"","対象に対する記述":""},"geometry":{"type":"Point","coordinates":[136.178429,35.936152]}},{"type":"Feature","properties":{"﻿name":"横越町八幡神社","施設名(英語)":"","カテゴリ":"一時避難所","対象地区":"新横江","住所":"横越町","電話番号":"","説明(日本語)":"","説明(英語)":"","対象に対する記述":""},"geometry":{"type":"Point","coordinates":[136.201765,35.948494]}},{"type":"Feature","properties":{"﻿name":"新町公民館","施設名(英語)":"","カテゴリ":"一時避難所","対象地区":"新横江","住所":"新町","電話番号":"","説明(日本語)":"","説明(英語)":"","対象に対する記述":""},"geometry":{"type":"Point","coordinates":[136.206886,35.941148]}},{"type":"Feature","properties":{"﻿name":"市営住宅新町団地","施設名(英語)":"","カテゴリ":"一時避難所","対象地区":"新横江","住所":"新町（市住・新住）","電話番号":"","説明(日本語)":"","説明(英語)":"","対象に対する記述":""},"geometry":{"type":"Point","coordinates":[136.202832,35.941274]}},{"type":"Feature","properties":{"﻿name":"下新庄町公民館","施設名(英語)":"","カテゴリ":"一時避難所","対象地区":"新横江","住所":"下新庄町","電話番号":"","説明(日本語)":"","説明(英語)":"","対象に対する記述":""},"geometry":{"type":"Point","coordinates":[136.209672,35.93537]}},{"type":"Feature","properties":{"﻿name":"小丸山広場","施設名(英語)":"","カテゴリ":"一時避難所","対象地区":"新横江","住所":"下新庄町","電話番号":"","説明(日本語)":"","説明(英語)":"","対象に対する記述":""},"geometry":{"type":"Point","coordinates":[136.212172,35.931357]}},{"type":"Feature","properties":{"﻿name":"定次公園","施設名(英語)":"","カテゴリ":"一時避難所","対象地区":"新横江","住所":"定次町","電話番号":"","説明(日本語)":"","説明(英語)":"","対象に対する記述":""},"geometry":{"type":"Point","coordinates":[136.199426,35.936856]}},{"type":"Feature","properties":{"﻿name":"五郎丸第２公園","施設名(英語)":"","カテゴリ":"一時避難所","対象地区":"新横江","住所":"五郎丸町","電話番号":"","説明(日本語)":"","説明(英語)":"","対象に対する記述":""},"geometry":{"type":"Point","coordinates":[136.1908,35.934224]}},{"type":"Feature","properties":{"﻿name":"鯖江東小学校","施設名(英語)":"","カテゴリ":"一時避難所","対象地区":"新横江","住所":"新横江１・２丁目","電話番号":"","説明(日本語)":"","説明(英語)":"","対象に対する記述":""},"geometry":{"type":"Point","coordinates":[136.198778,35.939604]}},{"type":"Feature","properties":{"﻿name":"文化センター前駐車場","施設名(英語)":"","カテゴリ":"一時避難所","対象地区":"新横江","住所":"東鯖江１・３丁目","電話番号":"","説明(日本語)":"","説明(英語)":"","対象に対する記述":""},"geometry":{"type":"Point","coordinates":[136.19753,35.943345]}},{"type":"Feature","properties":{"﻿name":"東鯖江第２公園","施設名(英語)":"","カテゴリ":"一時避難所","対象地区":"新横江","住所":"東鯖江２・４丁目","電話番号":"","説明(日本語)":"","説明(英語)":"","対象に対する記述":""},"geometry":{"type":"Point","coordinates":[136.1947,35.948344]}},{"type":"Feature","properties":{"﻿name":"市営住宅定次団地駐車場","施設名(英語)":"","カテゴリ":"一時避難所","対象地区":"新横江","住所":"定次団地","電話番号":"","説明(日本語)":"","説明(英語)":"","対象に対する記述":""},"geometry":{"type":"Point","coordinates":[136.194252,35.933087]}},{"type":"Feature","properties":{"﻿name":"西山公園野球場","施設名(英語)":"","カテゴリ":"一時避難所","対象地区":"神明","住所":"水落町１丁目","電話番号":"","説明(日本語)":"","説明(英語)":"","対象に対する記述":""},"geometry":{"type":"Point","coordinates":[136.181292,35.960065]}},{"type":"Feature","properties":{"﻿name":"水落北公園","施設名(英語)":"","カテゴリ":"一時避難所","対象地区":"神明","住所":"水落町１丁目","電話番号":"","説明(日本語)":"","説明(英語)":"","対象に対する記述":""},"geometry":{"type":"Point","coordinates":[136.176699,35.962702]}},{"type":"Feature","properties":{"﻿name":"水落東第１公園","施設名(英語)":"","カテゴリ":"一時避難所","対象地区":"神明","住所":"水落町２丁目（６～１２班）","電話番号":"","説明(日本語)":"","説明(英語)":"","対象に対する記述":""},"geometry":{"type":"Point","coordinates":[136.184961,35.964289]}},{"type":"Feature","properties":{"﻿name":"水落東第２公園","施設名(英語)":"","カテゴリ":"一時避難所","対象地区":"神明","住所":"水落町２丁目（１～５班）","電話番号":"","説明(日本語)":"","説明(英語)":"","対象に対する記述":""},"geometry":{"type":"Point","coordinates":[136.186243,35.960012]}},{"type":"Feature","properties":{"﻿name":"神明東第４公園","施設名(英語)":"","カテゴリ":"一時避難所","対象地区":"神明","住所":"水落町３丁目","電話番号":"","説明(日本語)":"","説明(英語)":"","対象に対する記述":""},"geometry":{"type":"Point","coordinates":[136.184915,35.967217]}},{"type":"Feature","properties":{"﻿name":"烏ヶ森公民館","施設名(英語)":"","カテゴリ":"一時避難所","対象地区":"神明","住所":"水落町４丁目","電話番号":"","説明(日本語)":"","説明(英語)":"","対象に対する記述":""},"geometry":{"type":"Point","coordinates":[136.182699,35.969149]}},{"type":"Feature","properties":{"﻿name":"北野第１公園","施設名(英語)":"","カテゴリ":"一時避難所","対象地区":"神明","住所":"北野町１丁目","電話番号":"","説明(日本語)":"","説明(英語)":"","対象に対する記述":""},"geometry":{"type":"Point","coordinates":[136.179674,35.962819]}},{"type":"Feature","properties":{"﻿name":"福井めがね第２駐車場","施設名(英語)":"","カテゴリ":"一時避難所","対象地区":"神明","住所":"北野町２丁目","電話番号":"","説明(日本語)":"","説明(英語)":"","対象に対する記述":""},"geometry":{"type":"Point","coordinates":[136.178971,35.966544]}},{"type":"Feature","properties":{"﻿name":"三六公園","施設名(英語)":"","カテゴリ":"一時避難所","対象地区":"神明","住所":"神明町１丁目","電話番号":"","説明(日本語)":"","説明(英語)":"","対象に対する記述":""},"geometry":{"type":"Point","coordinates":[136.180291,35.970898]}},{"type":"Feature","properties":{"﻿name":"神明町八幡神社","施設名(英語)":"","カテゴリ":"一時避難所","対象地区":"神明","住所":"神明町２丁目","電話番号":"","説明(日本語)":"","説明(英語)":"","対象に対する記述":""},"geometry":{"type":"Point","coordinates":[136.18279,35.974424]}},{"type":"Feature","properties":{"﻿name":"神明東第１公園","施設名(英語)":"","カテゴリ":"一時避難所","対象地区":"神明","住所":"神明町２丁目","電話番号":"","説明(日本語)":"","説明(英語)":"","対象に対する記述":""},"geometry":{"type":"Point","coordinates":[136.18352,35.974406]}},{"type":"Feature","properties":{"﻿name":"琵琶神社","施設名(英語)":"","カテゴリ":"一時避難所","対象地区":"神明","住所":"神明町３・４丁目","電話番号":"","説明(日本語)":"","説明(英語)":"","対象に対する記述":""},"geometry":{"type":"Point","coordinates":[136.183209,35.978834]}},{"type":"Feature","properties":{"﻿name":"鳥羽中児童センター","施設名(英語)":"","カテゴリ":"一時避難所","対象地区":"神明","住所":"神明町４・５丁目","電話番号":"0778-52-5920","説明(日本語)":"","説明(英語)":"","対象に対する記述":""},"geometry":{"type":"Point","coordinates":[136.185473,35.979403]}},{"type":"Feature","properties":{"﻿name":"三ヶ月地蔵","施設名(英語)":"","カテゴリ":"一時避難所","対象地区":"神明","住所":"神明町４・５丁目","電話番号":"","説明(日本語)":"","説明(英語)":"","対象に対する記述":""},"geometry":{"type":"Point","coordinates":[136.187088,35.982142]}},{"type":"Feature","properties":{"﻿name":"神明公民館","施設名(英語)":"","カテゴリ":"一時避難所","対象地区":"神明","住所":"三六町１丁目","電話番号":"0778-51-5065","説明(日本語)":"","説明(英語)":"","対象に対する記述":""},"geometry":{"type":"Point","coordinates":[136.178959,35.970727]}},{"type":"Feature","properties":{"﻿name":"三六武道館","施設名(英語)":"","カテゴリ":"一時避難所","対象地区":"神明","住所":"幸町１丁目","電話番号":"0778-52-8919","説明(日本語)":"","説明(英語)":"","対象に対する記述":""},"geometry":{"type":"Point","coordinates":[136.180379,35.97346]}},{"type":"Feature","properties":{"﻿name":"まとい寿司","施設名(英語)":"","カテゴリ":"一時避難所","対象地区":"神明","住所":"幸町２丁目","電話番号":"","説明(日本語)":"","説明(英語)":"","対象に対する記述":""},"geometry":{"type":"Point","coordinates":[136.181439,35.976369]}},{"type":"Feature","properties":{"﻿name":"田所町ふれあい会館","施設名(英語)":"","カテゴリ":"一時避難所","対象地区":"神明","住所":"田所町","電話番号":"0778-54-0341","説明(日本語)":"","説明(英語)":"","対象に対する記述":""},"geometry":{"type":"Point","coordinates":[136.178703,35.977749]}},{"type":"Feature","properties":{"﻿name":"北部第２公園","施設名(英語)":"","カテゴリ":"一時避難所","対象地区":"神明","住所":"丸山町１丁目","電話番号":"","説明(日本語)":"","説明(英語)":"","対象に対する記述":""},"geometry":{"type":"Point","coordinates":[136.181203,35.97952]}},{"type":"Feature","properties":{"﻿name":"北部第１公園","施設名(英語)":"","カテゴリ":"一時避難所","対象地区":"神明","住所":"丸山町２丁目","電話番号":"","説明(日本語)":"","説明(英語)":"","対象に対する記述":""},"geometry":{"type":"Point","coordinates":[136.182007,35.982863]}},{"type":"Feature","properties":{"﻿name":"丸山公園","施設名(英語)":"","カテゴリ":"一時避難所","対象地区":"神明","住所":"丸山町３・４丁目","電話番号":"","説明(日本語)":"","説明(英語)":"","対象に対する記述":""},"geometry":{"type":"Point","coordinates":[136.179277,35.983957]}},{"type":"Feature","properties":{"﻿name":"西鳥羽集落センター","施設名(英語)":"","カテゴリ":"一時避難所","対象地区":"神明","住所":"鳥羽１・２丁目","電話番号":"0778-53-0554","説明(日本語)":"","説明(英語)":"","対象に対する記述":""},"geometry":{"type":"Point","coordinates":[136.187742,35.98515]}},{"type":"Feature","properties":{"﻿name":"鳥羽公園","施設名(英語)":"","カテゴリ":"一時避難所","対象地区":"神明","住所":"鳥羽１・２丁目","電話番号":"","説明(日本語)":"","説明(英語)":"","対象に対する記述":""},"geometry":{"type":"Point","coordinates":[136.19113,35.986531]}},{"type":"Feature","properties":{"﻿name":"江尻町公園","施設名(英語)":"","カテゴリ":"一時避難所","対象地区":"神明","住所":"鳥羽１・２丁目","電話番号":"","説明(日本語)":"","説明(英語)":"","対象に対する記述":""},"geometry":{"type":"Point","coordinates":[136.188725,35.987858]}},{"type":"Feature","properties":{"﻿name":"鳥羽団地公園","施設名(英語)":"","カテゴリ":"一時避難所","対象地区":"神明","住所":"鳥羽３丁目","電話番号":"","説明(日本語)":"","説明(英語)":"","対象に対する記述":""},"geometry":{"type":"Point","coordinates":[136.186432,35.988498]}},{"type":"Feature","properties":{"﻿name":"つつじヶ丘第２公園","施設名(英語)":"","カテゴリ":"一時避難所","対象地区":"神明","住所":"鳥羽３丁目・つつじヶ丘町","電話番号":"","説明(日本語)":"","説明(英語)":"","対象に対する記述":""},"geometry":{"type":"Point","coordinates":[136.184022,35.987045]}},{"type":"Feature","properties":{"﻿name":"東鳥羽集集落センター","施設名(英語)":"","カテゴリ":"一時避難所","対象地区":"神明","住所":"東鳥羽","電話番号":"","説明(日本語)":"","説明(英語)":"","対象に対する記述":""},"geometry":{"type":"Point","coordinates":[136.20052,35.985676]}},{"type":"Feature","properties":{"﻿name":"つつじヶ丘町公民館公園","施設名(英語)":"","カテゴリ":"一時避難所","対象地区":"神明","住所":"つつじヶ丘町","電話番号":"0778-52-1991","説明(日本語)":"","説明(英語)":"","対象に対する記述":""},"geometry":{"type":"Point","coordinates":[136.183681,35.988323]}},{"type":"Feature","properties":{"﻿name":"神中第１公園","施設名(英語)":"","カテゴリ":"一時避難所","対象地区":"神明","住所":"神中町１丁目","電話番号":"","説明(日本語)":"","説明(英語)":"","対象に対する記述":""},"geometry":{"type":"Point","coordinates":[136.197688,35.971079]}},{"type":"Feature","properties":{"﻿name":"神中公園","施設名(英語)":"","カテゴリ":"一時避難所","対象地区":"神明","住所":"神中町２・３丁目","電話番号":"","説明(日本語)":"","説明(英語)":"","対象に対する記述":""},"geometry":{"type":"Point","coordinates":[136.188497,35.975823]}},{"type":"Feature","properties":{"﻿name":"御幸第２公園","施設名(英語)":"","カテゴリ":"一時避難所","対象地区":"神明","住所":"御幸町１・３丁目・鳥羽町","電話番号":"","説明(日本語)":"","説明(英語)":"","対象に対する記述":""},"geometry":{"type":"Point","coordinates":[136.193898,35.97886]}},{"type":"Feature","properties":{"﻿name":"御幸第３公園","施設名(英語)":"","カテゴリ":"一時避難所","対象地区":"神明","住所":"御幸町２丁目","電話番号":"","説明(日本語)":"","説明(英語)":"","対象に対する記述":""},"geometry":{"type":"Point","coordinates":[136.191296,35.978031]}},{"type":"Feature","properties":{"﻿name":"御幸第４公園","施設名(英語)":"","カテゴリ":"一時避難所","対象地区":"神明","住所":"御幸町２丁目","電話番号":"","説明(日本語)":"","説明(英語)":"","対象に対する記述":""},"geometry":{"type":"Point","coordinates":[136.193109,35.976191]}},{"type":"Feature","properties":{"﻿name":"御幸公園","施設名(英語)":"","カテゴリ":"一時避難所","対象地区":"神明","住所":"御幸町４丁目","電話番号":"","説明(日本語)":"","説明(英語)":"","対象に対する記述":""},"geometry":{"type":"Point","coordinates":[136.188754,35.977004]}},{"type":"Feature","properties":{"﻿name":"みどり公園","施設名(英語)":"","カテゴリ":"一時避難所","対象地区":"神明","住所":"みどり町内会","電話番号":"","説明(日本語)":"","説明(英語)":"","対象に対する記述":""},"geometry":{"type":"Point","coordinates":[136.174285,35.973212]}},{"type":"Feature","properties":{"﻿name":"共栄公園","施設名(英語)":"","カテゴリ":"一時避難所","対象地区":"神明","住所":"東米岡１丁目","電話番号":"","説明(日本語)":"","説明(英語)":"","対象に対する記述":""},"geometry":{"type":"Point","coordinates":[136.184869,35.984434]}},{"type":"Feature","properties":{"﻿name":"出口・木引区公民館","施設名(英語)":"","カテゴリ":"一時避難所","対象地区":"中河","住所":"出口・木引","電話番号":"","説明(日本語)":"","説明(英語)":"","対象に対する記述":""},"geometry":{"type":"Point","coordinates":[136.20911,35.948616]}},{"type":"Feature","properties":{"﻿name":"花出コミュニティ会館","施設名(英語)":"","カテゴリ":"一時避難所","対象地区":"中河","住所":"花出","電話番号":"","説明(日本語)":"","説明(英語)":"","対象に対する記述":""},"geometry":{"type":"Point","coordinates":[136.213402,35.947952]}},{"type":"Feature","properties":{"﻿name":"樋口公民館","施設名(英語)":"","カテゴリ":"一時避難所","対象地区":"中河","住所":"樋口","電話番号":"","説明(日本語)":"","説明(英語)":"","対象に対する記述":""},"geometry":{"type":"Point","coordinates":[136.212212,35.952326]}},{"type":"Feature","properties":{"﻿name":"町公民館","施設名(英語)":"","カテゴリ":"一時避難所","対象地区":"中河","住所":"町","電話番号":"","説明(日本語)":"","説明(英語)":"","対象に対する記述":""},"geometry":{"type":"Point","coordinates":[136.209616,35.95124]}},{"type":"Feature","properties":{"﻿name":"曲木児童センター","施設名(英語)":"","カテゴリ":"一時避難所","対象地区":"中河","住所":"曲木","電話番号":"0778-52-5940","説明(日本語)":"","説明(英語)":"","対象に対する記述":""},"geometry":{"type":"Point","coordinates":[136.206843,35.953817]}},{"type":"Feature","properties":{"﻿name":"原ふれあい会館","施設名(英語)":"","カテゴリ":"一時避難所","対象地区":"中河","住所":"原","電話番号":"","説明(日本語)":"","説明(英語)":"","対象に対する記述":""},"geometry":{"type":"Point","coordinates":[136.219835,35.94741]}},{"type":"Feature","properties":{"﻿name":"中野松成集落センター","施設名(英語)":"","カテゴリ":"一時避難所","対象地区":"中河","住所":"松成","電話番号":"0778-51-4002","説明(日本語)":"","説明(英語)":"","対象に対する記述":""},"geometry":{"type":"Point","coordinates":[136.221258,35.954489]}},{"type":"Feature","properties":{"﻿name":"上河端町集落センター","施設名(英語)":"","カテゴリ":"一時避難所","対象地区":"中河","住所":"上河端町","電話番号":"0778-52-6335","説明(日本語)":"","説明(英語)":"","対象に対する記述":""},"geometry":{"type":"Point","coordinates":[136.20251,35.9543]}},{"type":"Feature","properties":{"﻿name":"新出集落センター","施設名(英語)":"","カテゴリ":"一時避難所","対象地区":"中河","住所":"新出","電話番号":"0778-52-8488","説明(日本語)":"","説明(英語)":"","対象に対する記述":""},"geometry":{"type":"Point","coordinates":[136.196609,35.955941]}},{"type":"Feature","properties":{"﻿name":"舟枝町公民館","施設名(英語)":"","カテゴリ":"一時避難所","対象地区":"中河","住所":"舟枝町","電話番号":"","説明(日本語)":"","説明(英語)":"","対象に対する記述":""},"geometry":{"type":"Point","coordinates":[136.208392,35.962906]}},{"type":"Feature","properties":{"﻿name":"橋立公民館","施設名(英語)":"","カテゴリ":"一時避難所","対象地区":"中河","住所":"橋立町","電話番号":"0778-51-9351","説明(日本語)":"","説明(英語)":"","対象に対する記述":""},"geometry":{"type":"Point","coordinates":[136.210087,35.965745]}},{"type":"Feature","properties":{"﻿name":"下河端公園","施設名(英語)":"","カテゴリ":"一時避難所","対象地区":"中河","住所":"下河端町","電話番号":"","説明(日本語)":"","説明(英語)":"","対象に対する記述":""},"geometry":{"type":"Point","coordinates":[136.200109,35.96504]}},{"type":"Feature","properties":{"﻿name":"青葉公民館","施設名(英語)":"","カテゴリ":"一時避難所","対象地区":"中河","住所":"青葉町","電話番号":"","説明(日本語)":"","説明(英語)":"","対象に対する記述":""},"geometry":{"type":"Point","coordinates":[136.210012,35.97064]}},{"type":"Feature","properties":{"﻿name":"吉谷町公民館","施設名(英語)":"","カテゴリ":"一時避難所","対象地区":"片上","住所":"吉谷町","電話番号":"0778-52-5908","説明(日本語)":"","説明(英語)":"","対象に対する記述":""},"geometry":{"type":"Point","coordinates":[136.220451,35.970171]}},{"type":"Feature","properties":{"﻿name":"吉谷町公園","施設名(英語)":"","カテゴリ":"一時避難所","対象地区":"片上","住所":"吉谷町","電話番号":"","説明(日本語)":"","説明(英語)":"","対象に対する記述":""},"geometry":{"type":"Point","coordinates":[136.216541,35.968335]}},{"type":"Feature","properties":{"﻿name":"四方谷町集落センター広場","施設名(英語)":"","カテゴリ":"一時避難所","対象地区":"片上","住所":"四方谷町","電話番号":"","説明(日本語)":"","説明(英語)":"","対象に対する記述":""},"geometry":{"type":"Point","coordinates":[136.221428,35.977389]}},{"type":"Feature","properties":{"﻿name":"南井町公民館","施設名(英語)":"","カテゴリ":"一時避難所","対象地区":"片上","住所":"南井町","電話番号":"","説明(日本語)":"","説明(英語)":"","対象に対する記述":""},"geometry":{"type":"Point","coordinates":[136.225429,35.982919]}},{"type":"Feature","properties":{"﻿name":"大正寺町白山神社","施設名(英語)":"","カテゴリ":"一時避難所","対象地区":"片上","住所":"大正寺町","電話番号":"","説明(日本語)":"","説明(英語)":"","対象に対する記述":""},"geometry":{"type":"Point","coordinates":[136.230625,35.983375]}},{"type":"Feature","properties":{"﻿name":"大野町集落センター","施設名(英語)":"","カテゴリ":"一時避難所","対象地区":"片上","住所":"大野町","電話番号":"0778-51-6466","説明(日本語)":"","説明(英語)":"","対象に対する記述":""},"geometry":{"type":"Point","coordinates":[136.230941,35.974376]}},{"type":"Feature","properties":{"﻿name":"別所町広場","施設名(英語)":"","カテゴリ":"一時避難所","対象地区":"片上","住所":"別所町","電話番号":"","説明(日本語)":"","説明(英語)":"","対象に対する記述":""},"geometry":{"type":"Point","coordinates":[136.24203,35.973985]}},{"type":"Feature","properties":{"﻿name":"乙坂今北公民館","施設名(英語)":"","カテゴリ":"一時避難所","対象地区":"片上","住所":"乙坂今北町","電話番号":"0778-51-9424","説明(日本語)":"","説明(英語)":"","対象に対する記述":""},"geometry":{"type":"Point","coordinates":[136.231317,35.961282]}},{"type":"Feature","properties":{"﻿name":"青葉台ふれあい会館","施設名(英語)":"","カテゴリ":"一時避難所","対象地区":"片上","住所":"吉谷町青葉台","電話番号":"","説明(日本語)":"","説明(英語)":"","対象に対する記述":""},"geometry":{"type":"Point","coordinates":[136.213003,35.970964]}},{"type":"Feature","properties":{"﻿name":"吉江第１公園","施設名(英語)":"","カテゴリ":"一時避難所","対象地区":"立待","住所":"吉江中","電話番号":"","説明(日本語)":"","説明(英語)":"","対象に対する記述":""},"geometry":{"type":"Point","coordinates":[136.173473,35.986567]}},{"type":"Feature","properties":{"﻿name":"北道宅横空地","施設名(英語)":"","カテゴリ":"一時避難所","対象地区":"立待","住所":"吉江住宅団地","電話番号":"","説明(日本語)":"","説明(英語)":"","対象に対する記述":""},"geometry":{"type":"Point","coordinates":[136.175903,35.990287]}},{"type":"Feature","properties":{"﻿name":"春慶寺","施設名(英語)":"","カテゴリ":"一時避難所","対象地区":"立待","住所":"米岡町","電話番号":"0778-52-2015","説明(日本語)":"","説明(英語)":"","対象に対する記述":""},"geometry":{"type":"Point","coordinates":[136.176665,35.989697]}},{"type":"Feature","properties":{"﻿name":"田畑宅西側","施設名(英語)":"","カテゴリ":"一時避難所","対象地区":"立待","住所":"入町","電話番号":"","説明(日本語)":"","説明(英語)":"","対象に対する記述":""},"geometry":{"type":"Point","coordinates":[136.168267,35.993716]}},{"type":"Feature","properties":{"﻿name":"西番町ふれあい会館","施設名(英語)":"","カテゴリ":"一時避難所","対象地区":"立待","住所":"西番町","電話番号":"","説明(日本語)":"","説明(英語)":"","対象に対する記述":""},"geometry":{"type":"Point","coordinates":[136.166781,35.98905]}},{"type":"Feature","properties":{"﻿name":"杉本フラワー園","施設名(英語)":"","カテゴリ":"一時避難所","対象地区":"立待","住所":"上杉本","電話番号":"","説明(日本語)":"","説明(英語)":"","対象に対する記述":""},"geometry":{"type":"Point","coordinates":[136.173897,35.980062]}},{"type":"Feature","properties":{"﻿name":"中杉本ふれあい会館","施設名(英語)":"","カテゴリ":"一時避難所","対象地区":"立待","住所":"中杉本","電話番号":"0778-52-0063","説明(日本語)":"","説明(英語)":"","対象に対する記述":""},"geometry":{"type":"Point","coordinates":[136.175688,35.982441]}},{"type":"Feature","properties":{"﻿name":"立待小学校","施設名(英語)":"","カテゴリ":"一時避難所","対象地区":"立待","住所":"下杉本","電話番号":"0778-51-1505","説明(日本語)":"","説明(英語)":"","対象に対する記述":""},"geometry":{"type":"Point","coordinates":[136.169976,35.983888]}},{"type":"Feature","properties":{"﻿name":"糺第２公園","施設名(英語)":"","カテゴリ":"一時避難所","対象地区":"立待","住所":"糺町","電話番号":"","説明(日本語)":"","説明(英語)":"","対象に対する記述":""},"geometry":{"type":"Point","coordinates":[136.167294,35.977796]}},{"type":"Feature","properties":{"﻿name":"北部第３公園","施設名(英語)":"","カテゴリ":"一時避難所","対象地区":"立待","住所":"糺町","電話番号":"","説明(日本語)":"","説明(英語)":"","対象に対する記述":""},"geometry":{"type":"Point","coordinates":[136.175743,35.979303]}},{"type":"Feature","properties":{"﻿name":"糺コミュニティセンター","施設名(英語)":"","カテゴリ":"一時避難所","対象地区":"立待","住所":"糺町","電話番号":"0778-51-9423","説明(日本語)":"","説明(英語)":"","対象に対する記述":""},"geometry":{"type":"Point","coordinates":[136.175596,35.975242]}},{"type":"Feature","properties":{"﻿name":"石田上町ふれあい会館","施設名(英語)":"","カテゴリ":"一時避難所","対象地区":"立待","住所":"石田上町","電話番号":"0778-52-4871","説明(日本語)":"","説明(英語)":"","対象に対する記述":""},"geometry":{"type":"Point","coordinates":[136.160672,35.976483]}},{"type":"Feature","properties":{"﻿name":"石田中若宮神社","施設名(英語)":"","カテゴリ":"一時避難所","対象地区":"立待","住所":"石田中町","電話番号":"","説明(日本語)":"","説明(英語)":"","対象に対する記述":""},"geometry":{"type":"Point","coordinates":[136.156735,35.976014]}},{"type":"Feature","properties":{"﻿name":"石田下町公民館","施設名(英語)":"","カテゴリ":"一時避難所","対象地区":"立待","住所":"石田下町","電話番号":"","説明(日本語)":"","説明(英語)":"","対象に対する記述":""},"geometry":{"type":"Point","coordinates":[136.156402,35.97723]}},{"type":"Feature","properties":{"﻿name":"東米岡２丁目公民館","施設名(英語)":"","カテゴリ":"一時避難所","対象地区":"立待","住所":"東米岡２丁目","電話番号":"0778-53-0680","説明(日本語)":"","説明(英語)":"","対象に対する記述":""},"geometry":{"type":"Point","coordinates":[136.18353,35.987474]}},{"type":"Feature","properties":{"﻿name":"自衛隊駐屯地南西角","施設名(英語)":"","カテゴリ":"一時避難所","対象地区":"立待","住所":"平和台団地","電話番号":"","説明(日本語)":"","説明(英語)":"","対象に対する記述":""},"geometry":{"type":"Point","coordinates":[136.171253,35.993308]}},{"type":"Feature","properties":{"﻿name":"塩路宅北側","施設名(英語)":"","カテゴリ":"一時避難所","対象地区":"立待","住所":"吉江山手団地","電話番号":"","説明(日本語)":"","説明(英語)":"","対象に対する記述":""},"geometry":{"type":"Point","coordinates":[136.174917,35.990725]}},{"type":"Feature","properties":{"﻿name":"丸山公園","施設名(英語)":"","カテゴリ":"一時避難所","対象地区":"立待","住所":"丸山町３丁目","電話番号":"","説明(日本語)":"","説明(英語)":"","対象に対する記述":""},"geometry":{"type":"Point","coordinates":[136.17878,35.982873]}},{"type":"Feature","properties":{"﻿name":"西杉本公園","施設名(英語)":"","カテゴリ":"一時避難所","対象地区":"立待","住所":"西杉本","電話番号":"","説明(日本語)":"","説明(英語)":"","対象に対する記述":""},"geometry":{"type":"Point","coordinates":[136.163094,35.986354]}},{"type":"Feature","properties":{"﻿name":"川去町八幡神社","施設名(英語)":"","カテゴリ":"一時避難所","対象地区":"吉川","住所":"川去町","電話番号":"","説明(日本語)":"","説明(英語)":"","対象に対する記述":""},"geometry":{"type":"Point","coordinates":[136.141137,35.966354]}},{"type":"Feature","properties":{"﻿name":"西大井町集落センター","施設名(英語)":"","カテゴリ":"一時避難所","対象地区":"吉川","住所":"西大井町","電話番号":"","説明(日本語)":"","説明(英語)":"","対象に対する記述":""},"geometry":{"type":"Point","coordinates":[136.138348,35.958045]}},{"type":"Feature","properties":{"﻿name":"田村町集落センター","施設名(英語)":"","カテゴリ":"一時避難所","対象地区":"吉川","住所":"田村町","電話番号":"","説明(日本語)":"","説明(英語)":"","対象に対する記述":""},"geometry":{"type":"Point","coordinates":[136.148563,35.965096]}},{"type":"Feature","properties":{"﻿name":"持明寺町ふれあい会館","施設名(英語)":"","カテゴリ":"一時避難所","対象地区":"吉川","住所":"持明寺町","電話番号":"","説明(日本語)":"","説明(英語)":"","対象に対する記述":""},"geometry":{"type":"Point","coordinates":[136.146562,35.960055]}},{"type":"Feature","properties":{"﻿name":"持明寺町自転車道休憩広場","施設名(英語)":"","カテゴリ":"一時避難所","対象地区":"吉川","住所":"持明寺町","電話番号":"","説明(日本語)":"","説明(英語)":"","対象に対する記述":""},"geometry":{"type":"Point","coordinates":[136.146165,35.963104]}},{"type":"Feature","properties":{"﻿name":"冬島町ふれあい会館","施設名(英語)":"","カテゴリ":"一時避難所","対象地区":"吉川","住所":"冬島町","電話番号":"0778-62-3025","説明(日本語)":"","説明(英語)":"","対象に対する記述":""},"geometry":{"type":"Point","coordinates":[136.148354,35.953056]}},{"type":"Feature","properties":{"﻿name":"二丁掛町公民館","施設名(英語)":"","カテゴリ":"一時避難所","対象地区":"吉川","住所":"二丁掛町","電話番号":"","説明(日本語)":"","説明(英語)":"","対象に対する記述":""},"geometry":{"type":"Point","coordinates":[136.156175,35.952561]}},{"type":"Feature","properties":{"﻿name":"吉田町若宮八幡神社","施設名(英語)":"","カテゴリ":"一時避難所","対象地区":"吉川","住所":"吉田町","電話番号":"","説明(日本語)":"","説明(英語)":"","対象に対する記述":""},"geometry":{"type":"Point","coordinates":[136.157477,35.960381]}},{"type":"Feature","properties":{"﻿name":"大倉集荷場","施設名(英語)":"","カテゴリ":"一時避難所","対象地区":"吉川","住所":"大倉町","電話番号":"","説明(日本語)":"","説明(英語)":"","対象に対する記述":""},"geometry":{"type":"Point","coordinates":[136.157455,35.965452]}},{"type":"Feature","properties":{"﻿name":"小泉町與呉神社","施設名(英語)":"","カテゴリ":"一時避難所","対象地区":"吉川","住所":"小泉町","電話番号":"","説明(日本語)":"","説明(英語)":"","対象に対する記述":""},"geometry":{"type":"Point","coordinates":[136.155546,35.969623]}},{"type":"Feature","properties":{"﻿name":"平井児童センター","施設名(英語)":"","カテゴリ":"一時避難所","対象地区":"吉川","住所":"平井町","電話番号":"0778-62-0716","説明(日本語)":"","説明(英語)":"","対象に対する記述":""},"geometry":{"type":"Point","coordinates":[136.164723,35.961652]}},{"type":"Feature","properties":{"﻿name":"熊田町公民館","施設名(英語)":"","カテゴリ":"一時避難所","対象地区":"吉川","住所":"熊田町","電話番号":"0778-62-0031","説明(日本語)":"","説明(英語)":"","対象に対する記述":""},"geometry":{"type":"Point","coordinates":[136.167107,35.94908]}},{"type":"Feature","properties":{"﻿name":"日野町内会公民館","施設名(英語)":"","カテゴリ":"一時避難所","対象地区":"吉川","住所":"日野町内会","電話番号":"","説明(日本語)":"","説明(英語)":"","対象に対する記述":""},"geometry":{"type":"Point","coordinates":[136.167969,35.964788]}},{"type":"Feature","properties":{"﻿name":"西和町公民館","施設名(英語)":"","カテゴリ":"一時避難所","対象地区":"吉川","住所":"西和町内会","電話番号":"","説明(日本語)":"","説明(英語)":"","対象に対する記述":""},"geometry":{"type":"Point","coordinates":[136.144763,35.955496]}},{"type":"Feature","properties":{"﻿name":"あすなろ町ふれあい会館","施設名(英語)":"","カテゴリ":"一時避難所","対象地区":"吉川","住所":"あすなろ町内会","電話番号":"","説明(日本語)":"","説明(英語)":"","対象に対する記述":""},"geometry":{"type":"Point","coordinates":[136.157867,35.954227]}},{"type":"Feature","properties":{"﻿name":"あずま町公民館","施設名(英語)":"","カテゴリ":"一時避難所","対象地区":"吉川","住所":"あずま町内会","電話番号":"0778-62-2891","説明(日本語)":"","説明(英語)":"","対象に対する記述":""},"geometry":{"type":"Point","coordinates":[136.158425,35.951387]}},{"type":"Feature","properties":{"﻿name":"あおい町公園","施設名(英語)":"","カテゴリ":"一時避難所","対象地区":"吉川","住所":"あおい町","電話番号":"","説明(日本語)":"","説明(英語)":"","対象に対する記述":""},"geometry":{"type":"Point","coordinates":[136.160082,35.956663]}},{"type":"Feature","properties":{"﻿name":"朝霞第１公園","施設名(英語)":"","カテゴリ":"一時避難所","対象地区":"吉川","住所":"朝霞町内会","電話番号":"","説明(日本語)":"","説明(英語)":"","対象に対する記述":""},"geometry":{"type":"Point","coordinates":[136.149394,35.955978]}},{"type":"Feature","properties":{"﻿name":"若葉町児童公園","施設名(英語)":"","カテゴリ":"一時避難所","対象地区":"吉川","住所":"若葉町内会","電話番号":"","説明(日本語)":"","説明(英語)":"","対象に対する記述":""},"geometry":{"type":"Point","coordinates":[136.169081,35.955804]}},{"type":"Feature","properties":{"﻿name":"豊小学校","施設名(英語)":"","カテゴリ":"一時避難所","対象地区":"豊","住所":"下野田町","電話番号":"0778-62-1201","説明(日本語)":"","説明(英語)":"","対象に対する記述":""},"geometry":{"type":"Point","coordinates":[136.151343,35.943696]}},{"type":"Feature","properties":{"﻿name":"日中山広場","施設名(英語)":"","カテゴリ":"一時避難所","対象地区":"豊","住所":"和田町","電話番号":"","説明(日本語)":"","説明(英語)":"","対象に対する記述":""},"geometry":{"type":"Point","coordinates":[136.140226,35.949047]}},{"type":"Feature","properties":{"﻿name":"石生谷町公民館","施設名(英語)":"","カテゴリ":"一時避難所","対象地区":"豊","住所":"石生谷町","電話番号":"","説明(日本語)":"","説明(英語)":"","対象に対する記述":""},"geometry":{"type":"Point","coordinates":[136.13455,35.940535]}},{"type":"Feature","properties":{"﻿name":"漆原町公民館","施設名(英語)":"","カテゴリ":"一時避難所","対象地区":"豊","住所":"漆原町","電話番号":"","説明(日本語)":"","説明(英語)":"","対象に対する記述":""},"geometry":{"type":"Point","coordinates":[136.143251,35.942159]}},{"type":"Feature","properties":{"﻿name":"豊幼稚園","施設名(英語)":"","カテゴリ":"一時避難所","対象地区":"豊","住所":"上野田町","電話番号":"0778-62-1680","説明(日本語)":"","説明(英語)":"","対象に対する記述":""},"geometry":{"type":"Point","coordinates":[136.151622,35.942428]}},{"type":"Feature","properties":{"﻿name":"上氏家町公民館","施設名(英語)":"","カテゴリ":"一時避難所","対象地区":"豊","住所":"上氏家町","電話番号":"0778-62-0748","説明(日本語)":"","説明(英語)":"","対象に対する記述":""},"geometry":{"type":"Point","coordinates":[136.157446,35.941621]}},{"type":"Feature","properties":{"﻿name":"下司町公園","施設名(英語)":"","カテゴリ":"一時避難所","対象地区":"豊","住所":"下司町","電話番号":"","説明(日本語)":"","説明(英語)":"","対象に対する記述":""},"geometry":{"type":"Point","coordinates":[136.168443,35.940605]}},{"type":"Feature","properties":{"﻿name":"鳥井町春日神社","施設名(英語)":"","カテゴリ":"一時避難所","対象地区":"豊","住所":"鳥井町","電話番号":"","説明(日本語)":"","説明(英語)":"","対象に対する記述":""},"geometry":{"type":"Point","coordinates":[136.167676,35.944418]}},{"type":"Feature","properties":{"﻿name":"当田町公民館","施設名(英語)":"","カテゴリ":"一時避難所","対象地区":"豊","住所":"当田町","電話番号":"","説明(日本語)":"","説明(英語)":"","対象に対する記述":""},"geometry":{"type":"Point","coordinates":[136.163701,35.947758]}},{"type":"Feature","properties":{"﻿name":"下氏家町公民館","施設名(英語)":"","カテゴリ":"一時避難所","対象地区":"豊","住所":"下氏家町","電話番号":"","説明(日本語)":"","説明(英語)":"","対象に対する記述":""},"geometry":{"type":"Point","coordinates":[136.15476,35.946169]}},{"type":"Feature","properties":{"﻿name":"青武台団地広場","施設名(英語)":"","カテゴリ":"一時避難所","対象地区":"豊","住所":"青武台団地","電話番号":"","説明(日本語)":"","説明(英語)":"","対象に対する記述":""},"geometry":{"type":"Point","coordinates":[136.172693,35.939602]}},{"type":"Feature","properties":{"﻿name":"相生公園","施設名(英語)":"","カテゴリ":"一時避難所","対象地区":"豊","住所":"相生","電話番号":"","説明(日本語)":"","説明(英語)":"","対象に対する記述":""},"geometry":{"type":"Point","coordinates":[136.146692,35.94933]}},{"type":"Feature","properties":{"﻿name":"満願寺","施設名(英語)":"","カテゴリ":"一時避難所","対象地区":"北中山","住所":"松成町","電話番号":"0778-65-1301","説明(日本語)":"","説明(英語)":"","対象に対する記述":""},"geometry":{"type":"Point","coordinates":[136.223833,35.957151]}},{"type":"Feature","properties":{"﻿name":"落井町公民館前","施設名(英語)":"","カテゴリ":"一時避難所","対象地区":"北中山","住所":"落井町","電話番号":"0778-65-2665","説明(日本語)":"","説明(英語)":"","対象に対する記述":""},"geometry":{"type":"Point","coordinates":[136.234971,35.952671]}},{"type":"Feature","properties":{"﻿name":"磯部集落センター","施設名(英語)":"","カテゴリ":"一時避難所","対象地区":"北中山","住所":"磯部町","電話番号":"","説明(日本語)":"","説明(英語)":"","対象に対する記述":""},"geometry":{"type":"Point","coordinates":[136.239878,35.959078]}},{"type":"Feature","properties":{"﻿name":"戸口児童センター広場","施設名(英語)":"","カテゴリ":"一時避難所","対象地区":"北中山","住所":"戸口町","電話番号":"0778-65-0664","説明(日本語)":"","説明(英語)":"","対象に対する記述":""},"geometry":{"type":"Point","coordinates":[136.246521,35.951772]}},{"type":"Feature","properties":{"﻿name":"中戸口町篝場","施設名(英語)":"","カテゴリ":"一時避難所","対象地区":"北中山","住所":"中戸口町","電話番号":"","説明(日本語)":"","説明(英語)":"","対象に対する記述":""},"geometry":{"type":"Point","coordinates":[136.248171,35.95982]}},{"type":"Feature","properties":{"﻿name":"上戸口町公民館","施設名(英語)":"","カテゴリ":"一時避難所","対象地区":"北中山","住所":"上戸口町","電話番号":"","説明(日本語)":"","説明(英語)":"","対象に対する記述":""},"geometry":{"type":"Point","coordinates":[136.255287,35.97104]}},{"type":"Feature","properties":{"﻿name":"川島町公民館グラウンド","施設名(英語)":"","カテゴリ":"一時避難所","対象地区":"北中山","住所":"川島町","電話番号":"0778-65-1964","説明(日本語)":"","説明(英語)":"","対象に対する記述":""},"geometry":{"type":"Point","coordinates":[136.230211,35.946915]}},{"type":"Feature","properties":{"﻿name":"東部児童センター広場","施設名(英語)":"","カテゴリ":"一時避難所","対象地区":"河和田","住所":"別司町","電話番号":"0778-65-1119","説明(日本語)":"","説明(英語)":"","対象に対する記述":""},"geometry":{"type":"Point","coordinates":[136.257828,35.948087]}},{"type":"Feature","properties":{"﻿name":"河和田町広場","施設名(英語)":"","カテゴリ":"一時避難所","対象地区":"河和田","住所":"河和田町","電話番号":"","説明(日本語)":"","説明(英語)":"","対象に対する記述":""},"geometry":{"type":"Point","coordinates":[136.269102,35.952328]}},{"type":"Feature","properties":{"﻿name":"莇生田町公民館","施設名(英語)":"","カテゴリ":"一時避難所","対象地区":"河和田","住所":"莇生田町","電話番号":"0778-65-0134","説明(日本語)":"","説明(英語)":"","対象に対する記述":""},"geometry":{"type":"Point","coordinates":[136.276836,35.945938]}},{"type":"Feature","properties":{"﻿name":"片山町会館","施設名(英語)":"","カテゴリ":"一時避難所","対象地区":"河和田","住所":"片山町","電話番号":"0778-65-0421","説明(日本語)":"","説明(英語)":"","対象に対する記述":""},"geometry":{"type":"Point","coordinates":[136.275864,35.949773]}},{"type":"Feature","properties":{"﻿name":"西袋町グラウンド","施設名(英語)":"","カテゴリ":"一時避難所","対象地区":"河和田","住所":"西袋町","電話番号":"","説明(日本語)":"","説明(英語)":"","対象に対する記述":""},"geometry":{"type":"Point","coordinates":[136.269471,35.958038]}},{"type":"Feature","properties":{"﻿name":"越前漆器伝統産業会館","施設名(英語)":"","カテゴリ":"一時避難所","対象地区":"河和田","住所":"西袋町","電話番号":"0778-65-2727","説明(日本語)":"","説明(英語)":"","対象に対する記述":""},"geometry":{"type":"Point","coordinates":[136.273902,35.95314]}},{"type":"Feature","properties":{"﻿name":"椿坂ゲートボール場","施設名(英語)":"","カテゴリ":"一時避難所","対象地区":"河和田","住所":"椿坂","電話番号":"","説明(日本語)":"","説明(英語)":"","対象に対する記述":""},"geometry":{"type":"Point","coordinates":[136.276834,35.958617]}},{"type":"Feature","properties":{"﻿name":"金谷町グラウンド","施設名(英語)":"","カテゴリ":"一時避難所","対象地区":"河和田","住所":"金谷町","電話番号":"","説明(日本語)":"","説明(英語)":"","対象に対する記述":""},"geometry":{"type":"Point","coordinates":[136.283188,35.963938]}},{"type":"Feature","properties":{"﻿name":"寺中町公民館","施設名(英語)":"","カテゴリ":"一時避難所","対象地区":"河和田","住所":"寺中町","電話番号":"0778-65-1963","説明(日本語)":"","説明(英語)":"","対象に対する記述":""},"geometry":{"type":"Point","coordinates":[136.289715,35.955359]}},{"type":"Feature","properties":{"﻿name":"寺中町河和田神社","施設名(英語)":"","カテゴリ":"一時避難所","対象地区":"河和田","住所":"寺中町","電話番号":"","説明(日本語)":"","説明(英語)":"","対象に対する記述":""},"geometry":{"type":"Point","coordinates":[136.291131,35.95732]}},{"type":"Feature","properties":{"﻿name":"河和田第１公園","施設名(英語)":"","カテゴリ":"一時避難所","対象地区":"河和田","住所":"北中町","電話番号":"","説明(日本語)":"","説明(英語)":"","対象に対する記述":""},"geometry":{"type":"Point","coordinates":[136.283136,35.955724]}},{"type":"Feature","properties":{"﻿name":"東清水町公民館","施設名(英語)":"","カテゴリ":"一時避難所","対象地区":"河和田","住所":"東清水町","電話番号":"0778-65-2363","説明(日本語)":"","説明(英語)":"","対象に対する記述":""},"geometry":{"type":"Point","coordinates":[136.284368,35.952363]}},{"type":"Feature","properties":{"﻿name":"尾花グラウンド","施設名(英語)":"","カテゴリ":"一時避難所","対象地区":"河和田","住所":"尾花町","電話番号":"","説明(日本語)":"","説明(英語)":"","対象に対する記述":""},"geometry":{"type":"Point","coordinates":[136.296089,35.951441]}},{"type":"Feature","properties":{"﻿name":"沢町公民館","施設名(英語)":"","カテゴリ":"一時避難所","対象地区":"河和田","住所":"沢町","電話番号":"0778-65-2416","説明(日本語)":"","説明(英語)":"","対象に対する記述":""},"geometry":{"type":"Point","coordinates":[136.303079,35.948504]}},{"type":"Feature","properties":{"﻿name":"上河内町公民館","施設名(英語)":"","カテゴリ":"一時避難所","対象地区":"河和田","住所":"上河内町","電話番号":"0778-65-3025","説明(日本語)":"","説明(英語)":"","対象に対する記述":""},"geometry":{"type":"Point","coordinates":[136.30884,35.947088]}}]},"医療機関":{"type":"FeatureCollection","features":[{"type":"Feature","properties":{"﻿name":"いしだ皮膚科クリニック","施設名(英語)":"","カテゴリ":"医療機関","電話番号":"0778-53-0753","FAX番号":"0778-53-0751","郵便番号":"916-0041","住所":"鯖江市東鯖江1-3-15"},"geometry":{"type":"Point","coordinates":[136.196369,35.946116]}},{"type":"Feature","properties":{"﻿name":"伊与整形外科","施設名(英語)":"","カテゴリ":"医療機関","電話番号":"0778-51-6300","FAX番号":"0778-52-6300","郵便番号":"916-0018","住所":"鯖江市幸町2-5-3"},"geometry":{"type":"Point","coordinates":[136.181539,35.977441]}},{"type":"Feature","properties":{"﻿name":"一乗医院","施設名(英語)":"","カテゴリ":"医療機関","電話番号":"0778-65-0052","FAX番号":"0778-65-2239","郵便番号":"916-1222","住所":"鯖江市河和田町28-1-1"},"geometry":{"type":"Point","coordinates":[136.27157,35.94812]}},{"type":"Feature","properties":{"﻿name":"加藤産婦人科","施設名(英語)":"","カテゴリ":"医療機関","電話番号":"0778-51-1285","FAX番号":"0778-51-7667","郵便番号":"916-0022","住所":"鯖江市水落町1-4-21"},"geometry":{"type":"Point","coordinates":[136.181998,35.961862]}},{"type":"Feature","properties":{"﻿name":"カマカズ医院","施設名(英語)":"","カテゴリ":"医療機関","電話番号":"0778-51-0207","FAX番号":"0778-51-9595","郵便番号":"916-0053","住所":"鯖江市日の出町5-4"},"geometry":{"type":"Point","coordinates":[136.186888,35.942807]}},{"type":"Feature","properties":{"﻿name":"木水医院","施設名(英語)":"","カテゴリ":"医療機関","電話番号":"0778-51-7557","FAX番号":"0778-51-1863","郵便番号":"916-0025","住所":"鯖江市旭町1-9-1"},"geometry":{"type":"Point","coordinates":[136.186791,35.943601]}},{"type":"Feature","properties":{"﻿name":"木村病院","施設名(英語)":"","カテゴリ":"医療機関","電話番号":"0778-51-0478","FAX番号":"0778-52-4817","郵便番号":"916-0025","住所":"鯖江市旭町4-4-9"},"geometry":{"type":"Point","coordinates":[136.186746,35.948817]}},{"type":"Feature","properties":{"﻿name":"鯖江ﾘﾊﾋﾞﾘﾃｰｼｮﾝ病院","施設名(英語)":"","カテゴリ":"医療機関","電話番号":"0778-51-2755","FAX番号":"0778-51-4271","郵便番号":"916-0025","住所":"鯖江市旭町4-9-10"},"geometry":{"type":"Point","coordinates":[136.188253,35.950113]}},{"type":"Feature","properties":{"﻿name":"みどりヶ丘病院","施設名(英語)":"","カテゴリ":"医療機関","電話番号":"0778-51-1370","FAX番号":"0778-51-1487","郵便番号":"916-0021","住所":"鯖江市三六町1-2-6"},"geometry":{"type":"Point","coordinates":[136.177315,35.968746]}},{"type":"Feature","properties":{"﻿name":"きむら内科医院","施設名(英語)":"","カテゴリ":"医療機関","電話番号":"0778-54-0707","FAX番号":"0778-51-7321","郵便番号":"916-0033","住所":"鯖江市中野町257-3-7"},"geometry":{"type":"Point","coordinates":[136.220716,35.948096]}},{"type":"Feature","properties":{"﻿name":"くぼたクリニック","施設名(英語)":"","カテゴリ":"医療機関","電話番号":"0778-53-2511","FAX番号":"0778-53-2611","郵便番号":"916-0004","住所":"鯖江市糺町30-2-1"},"geometry":{"type":"Point","coordinates":[136.174702,35.972471]}},{"type":"Feature","properties":{"﻿name":"くまもと眼科クリニック","施設名(英語)":"","カテゴリ":"医療機関","電話番号":"0778-43-5066","FAX番号":"0778-43-5015","郵便番号":"916-0041","住所":"鯖江市東鯖江1-4-23"},"geometry":{"type":"Point","coordinates":[136.195943,35.945306]}},{"type":"Feature","properties":{"﻿name":"川口小児科医院","施設名(英語)":"","カテゴリ":"医療機関","電話番号":"0778-51-0025","FAX番号":"0778-54-7125","郵便番号":"916-0027","住所":"鯖江市桜町2-8-22"},"geometry":{"type":"Point","coordinates":[136.179748,35.946748]}},{"type":"Feature","properties":{"﻿name":"今野内科","施設名(英語)":"","カテゴリ":"医療機関","電話番号":"0778-51-1018","FAX番号":"0778-51-6249","郵便番号":"916-0018","住所":"鯖江市幸町1-2-12"},"geometry":{"type":"Point","coordinates":[136.181035,35.973851]}},{"type":"Feature","properties":{"﻿name":"幸道眼科","施設名(英語)":"","カテゴリ":"医療機関","電話番号":"0778-54-0088","FAX番号":"0778-52-5701","郵便番号":"916-0018","住所":"鯖江市幸町1-4-10"},"geometry":{"type":"Point","coordinates":[136.181142,35.974711]}},{"type":"Feature","properties":{"﻿name":"公立丹南病院","施設名(英語)":"","カテゴリ":"医療機関","電話番号":"0778-51-2260","FAX番号":"0778-52-8620","郵便番号":"916-8515","住所":"鯖江市三六町1-2-31"},"geometry":{"type":"Point","coordinates":[136.178085,35.970091]}},{"type":"Feature","properties":{"﻿name":"斎藤医院","施設名(英語)":"","カテゴリ":"医療機関","電話番号":"0778-51-0073","FAX番号":"0778-51-9880","郵便番号":"916-0026","住所":"鯖江市本町3-1-25"},"geometry":{"type":"Point","coordinates":[136.186145,35.947058]}},{"type":"Feature","properties":{"﻿name":"斎藤病院","施設名(英語)":"","カテゴリ":"医療機関","電話番号":"0778-51-0593","FAX番号":"0778-53-1597","郵便番号":"916-0033","住所":"鯖江市中野町6-1-1"},"geometry":{"type":"Point","coordinates":[136.20646,35.944846]}},{"type":"Feature","properties":{"﻿name":"品川クリニック","施設名(英語)":"","カテゴリ":"医療機関","電話番号":"0778-51-0011","FAX番号":"0778-53-0011","郵便番号":"916-0033","住所":"鯖江市中野町56-10"},"geometry":{"type":"Point","coordinates":[136.205762,35.953516]}},{"type":"Feature","properties":{"﻿name":"嶋田整形外科医院","施設名(英語)":"","カテゴリ":"医療機関","電話番号":"0778-54-0500","FAX番号":"0778-54-0510","郵便番号":"916-0044","住所":"鯖江市五郎丸町253"},"geometry":{"type":"Point","coordinates":[136.190758,35.933332]}},{"type":"Feature","properties":{"﻿name":"鯖江清水眼科","施設名(英語)":"","カテゴリ":"医療機関","電話番号":"0778-51-0067","FAX番号":"0778-53-1683","郵便番号":"916-0025","住所":"鯖江市旭町2-1-25"},"geometry":{"type":"Point","coordinates":[136.188422,35.945332]}},{"type":"Feature","properties":{"﻿name":"鯖江清水耳鼻咽喉科医院","施設名(英語)":"","カテゴリ":"医療機関","電話番号":"0778-52-8700","FAX番号":"0778-52-2901","郵便番号":"916-0026","住所":"鯖江市本町4-1-28"},"geometry":{"type":"Point","coordinates":[136.186016,35.948411]}},{"type":"Feature","properties":{"﻿name":"皮膚科鈴木医院","施設名(英語)":"","カテゴリ":"医療機関","電話番号":"0778-51-0232","FAX番号":"0778-51-0232","郵便番号":"916-0024","住所":"鯖江市長泉寺町1-8-36"},"geometry":{"type":"Point","coordinates":[136.186265,35.951896]}},{"type":"Feature","properties":{"﻿name":"産婦人科鈴木クリニック","施設名(英語)":"","カテゴリ":"医療機関","電話番号":"0778-52-6000","FAX番号":"0778-52-6002","郵便番号":"916-0041","住所":"鯖江市東鯖江4-2-23"},"geometry":{"type":"Point","coordinates":[136.19793,35.947986]}},{"type":"Feature","properties":{"﻿name":"高野医院","施設名(英語)":"","カテゴリ":"医療機関","電話番号":"0778-65-0236","FAX番号":"0778-65-3477","郵便番号":"916-1222","住所":"鯖江市河和田町20-4-1"},"geometry":{"type":"Point","coordinates":[136.272879,35.951088]}},{"type":"Feature","properties":{"﻿name":"高村病院","施設名(英語)":"","カテゴリ":"医療機関","電話番号":"0778-51-0845","FAX番号":"0778-51-2219","郵便番号":"916-0018","住所":"鯖江市幸町1-2-2"},"geometry":{"type":"Point","coordinates":[136.181137,35.973139]}},{"type":"Feature","properties":{"﻿name":"たかはし内科婦人科医院","施設名(英語)":"","カテゴリ":"医療機関","電話番号":"0778-54-0550","FAX番号":"0778-54-0670","郵便番号":"916-0028","住所":"鯖江市小黒町3-11-28"},"geometry":{"type":"Point","coordinates":[136.17402,35.95638]}},{"type":"Feature","properties":{"﻿name":"谷川病院","施設名(英語)":"","カテゴリ":"医療機関","電話番号":"0778-51-4132","FAX番号":"0778-52-4627","郵便番号":"916-0026","住所":"鯖江市本町4-3-14"},"geometry":{"type":"Point","coordinates":[136.184916,35.949809]}},{"type":"Feature","properties":{"﻿name":"津田クリニック","施設名(英語)":"","カテゴリ":"医療機関","電話番号":"0778-62-0222","FAX番号":"0778-62-4522","郵便番号":"916-0061","住所":"鯖江市平井町43-1"},"geometry":{"type":"Point","coordinates":[136.168611,35.957925]}},{"type":"Feature","properties":{"﻿name":"土屋医院","施設名(英語)":"","カテゴリ":"医療機関","電話番号":"0778-51-2100","FAX番号":"0778-51-3555","郵便番号":"916-0025","住所":"鯖江市旭町3-6-2"},"geometry":{"type":"Point","coordinates":[136.186713,35.946463]}},{"type":"Feature","properties":{"﻿name":"土屋耳鼻咽喉科クリニック","施設名(英語)":"","カテゴリ":"医療機関","電話番号":"0778-54-0555","FAX番号":"0778-54-0560","郵便番号":"916-0021","住所":"鯖江市三六町2-4-15"},"geometry":{"type":"Point","coordinates":[136.17923,35.972653]}},{"type":"Feature","properties":{"﻿name":"野尻内科胃腸科医院","施設名(英語)":"","カテゴリ":"医療機関","電話番号":"0778-51-1460","FAX番号":"0778-51-7803","郵便番号":"916-0013","住所":"鯖江市鳥羽2-4-16"},"geometry":{"type":"Point","coordinates":[136.188419,35.988821]}},{"type":"Feature","properties":{"﻿name":"はやしクリニック","施設名(英語)":"","カテゴリ":"医療機関","電話番号":"0778-25-1884","FAX番号":"0778-51-5074","郵便番号":"916-0022","住所":"鯖江市水落町2-26-28"},"geometry":{"type":"Point","coordinates":[136.187167,35.963266]}},{"type":"Feature","properties":{"﻿name":"馬場医院","施設名(英語)":"","カテゴリ":"医療機関","電話番号":"0778-51-1677","FAX番号":"0778-51-0050","郵便番号":"916-0005","住所":"鯖江市杉本町16-1-3"},"geometry":{"type":"Point","coordinates":[136.169494,35.982032]}},{"type":"Feature","properties":{"﻿name":"広瀬病院","施設名(英語)":"","カテゴリ":"医療機関","電話番号":"0778-51-3030","FAX番号":"0778-51-5978","郵便番号":"916-0025","住所":"鯖江市旭町1-2-8"},"geometry":{"type":"Point","coordinates":[136.187362,35.943897]}},{"type":"Feature","properties":{"﻿name":"藤田胃腸科・内科・外科医院","施設名(英語)":"","カテゴリ":"医療機関","電話番号":"0778-52-5200","FAX番号":"0778-52-7268","郵便番号":"916-0022","住所":"鯖江市水落町4-16-24"},"geometry":{"type":"Point","coordinates":[136.18663,35.970673]}},{"type":"Feature","properties":{"﻿name":"前田医院","施設名(英語)":"","カテゴリ":"医療機関","電話番号":"0778-51-0585","FAX番号":"0778-51-8660","郵便番号":"916-0047","住所":"鯖江市柳町1-7-14"},"geometry":{"type":"Point","coordinates":[136.189522,35.946179]}},{"type":"Feature","properties":{"﻿name":"丸山内科循環器科医院","施設名(英語)":"","カテゴリ":"医療機関","電話番号":"0778-29-0008","FAX番号":"0778-53-0222","郵便番号":"916-0055","住所":"鯖江市上鯖江2-9-5"},"geometry":{"type":"Point","coordinates":[136.178825,35.935812]}},{"type":"Feature","properties":{"﻿name":"みつや心療クリニック","施設名(英語)":"","カテゴリ":"医療機関","電話番号":"0778-42-5606","FAX番号":"0778-42-5606","郵便番号":"916-0044","住所":"鯖江市五郎丸町273"},"geometry":{"type":"Point","coordinates":[136.190718,35.933653]}},{"type":"Feature","properties":{"﻿name":"福井県丹南健康福祉センター","施設名(英語)":"","カテゴリ":"医療機関","電話番号":"0778-51-0034","FAX番号":"0778-51-7804","郵便番号":"916-0022","住所":"鯖江市水落町1-2-25"},"geometry":{"type":"Point","coordinates":[136.1825,35.959927]}},{"type":"Feature","properties":{"﻿name":"ともだち診療所","施設名(英語)":"","カテゴリ":"医療機関","電話番号":"0778-51-4895","FAX番号":"0778-52-4894","郵便番号":"916-0083","住所":"鯖江市石田上町23-14"},"geometry":{"type":"Point","coordinates":[136.161139,35.974211]}},{"type":"Feature","properties":{"﻿name":"柳沢医院","施設名(英語)":"","カテゴリ":"医療機関","電話番号":"0778-52-6100","FAX番号":"0778-54-7221","郵便番号":"916-0021","住所":"鯖江市三六町1-2-50"},"geometry":{"type":"Point","coordinates":[136.178396,35.968155]}},{"type":"Feature","properties":{"﻿name":"山岸医院","施設名(英語)":"","カテゴリ":"医療機関","電話番号":"0778-65-1084","FAX番号":"0778-65-7100","郵便番号":"916-1113","住所":"鯖江市戸の口町15-13-4"},"geometry":{"type":"Point","coordinates":[136.246304,35.951581]}},{"type":"Feature","properties":{"﻿name":"鯖江内科医院","施設名(英語)":"","カテゴリ":"医療機関","電話番号":"0778-62-0111","FAX番号":"0778-62-0010","郵便番号":"916-0065","住所":"鯖江市当田町10-5-2"},"geometry":{"type":"Point","coordinates":[136.163864,35.948359]}}]}}